country,city,clicks,views,lat,lng
United States of America,Los Angeles,2.0,860,33.98997825,-118.1799805
United States of America,New York,3.0,781,40.74997906,-73.98001693
United States of America,Seattle,0.0,780,47.57000205,-122.339985
United States of America,Chicago,2.0,768,41.82999066,-87.75005497
United States of America,Portland,1.0,690,43.67216158,-70.2455274
United States of America,Portland,1.0,690,45.52002382,-122.6799901
United States of America,San Francisco,1.0,509,37.74000775,-122.4599777
United States of America,Houston,2.0,486,29.81997438,-95.33997929
United States of America,Philadelphia,3.0,439,39.99997316,-75.16999597
United States of America,Austin,1.0,401,30.26694969,-97.74277836
United States of America,San Diego,3.0,391,32.82002382,-117.1799899
United States of America,Denver,0.0,363,39.73918805,-104.984016
United States of America,Minneapolis,1.0,307,44.97997927,-93.25178634
United States of America,San Jose,2.0,303,37.29998293,-121.8499891
United States of America,Atlanta,1.0,300,33.83001385,-84.39994938
Canada,Toronto,1.0,292,43.69997988,-79.42002079
United States of America,Las Vegas,1.0,254,35.59701194,-105.2225027
United States of America,Las Vegas,1.0,254,36.20999778,-115.2200061
United States of America,Oakland,0.0,220,37.76892071,-122.2211034
United States of America,Miami,0.0,207,25.7876107,-80.22410608
United States of America,Columbus,1.0,202,32.47043276,-84.98001734
United States of America,Columbus,1.0,202,39.97997438,-82.9900096
Singapore,Singapore,0.0,186,1.293033466,103.8558207
United States of America,Charlotte,0.0,182,35.20499453,-80.83003809
United States of America,Phoenix,0.0,182,33.53997988,-112.0699917
United States of America,Dallas,1.0,174,32.82002382,-96.84001693
United States of America,Richmond,1.0,174,39.82889833,-84.89028121
United States of America,Richmond,1.0,174,37.55001935,-77.449986
United States of America,Arlington,0.0,167,32.68476076,-97.02023849
United States of America,Rochester,0.0,158,44.02205324,-92.46968937
United States of America,Rochester,0.0,158,43.17042564,-77.61994979
United States of America,Orlando,1.0,158,28.50997683,-81.38003036
United States of America,Boston,1.0,156,42.32996014,-71.07001367
United States of America,Pittsburgh,0.0,156,40.4299986,-79.99998539
United States of America,Indianapolis,0.0,155,39.74998842,-86.17004806
United States of America,Louisville,0.0,154,38.22501691,-85.74870427
United States of America,Cincinnati,0.0,152,39.16188479,-84.45692265
United States of America,Sacramento,0.0,147,38.57502138,-121.4700381
United States of America,Ann Arbor,0.0,144,42.30037539,-83.71999089
United States of America,Madison,0.0,143,43.07301556,-89.40111699
Canada,Calgary,0.0,138,51.08299176,-114.0799982
United States of America,Springfield,0.0,137,44.05194806,-122.9780339
United States of America,Springfield,0.0,137,42.12002464,-72.57999903
United States of America,Springfield,0.0,137,39.92000388,-83.799986
United States of America,Springfield,0.0,137,39.82000999,-89.65001652
United States of America,Springfield,0.0,137,37.18001609,-93.31999923
United States of America,San Antonio,0.0,131,29.48733319,-98.50730534
United States of America,Salt Lake City,0.0,130,40.7750163,-111.9300519
United States of America,Boise,0.0,129,43.60859011,-116.2274899
Canada,Ottawa,0.0,124,45.4166968,-75.7000153
United States of America,Wilmington,1.0,123,39.74626772,-75.54689803
United States of America,Wilmington,1.0,123,34.22551943,-77.94502039
Canada,Winnipeg,1.0,120,49.88298749,-97.16599186
United States of America,Colorado Springs,0.0,117,38.86296246,-104.7919863
United States of America,Newark,0.0,115,40.70042137,-74.17000533
United States of America,Raleigh,0.0,112,35.81878135,-78.64469344
United States of America,Fayetteville,1.0,112,36.06297833,-94.15720911
United States of America,Fayetteville,1.0,112,35.06293601,-78.88359359
United States of America,Buffalo,0.0,112,42.87997825,-78.88000208
United States of America,Columbia,0.0,111,35.61499534,-87.03526656
United States of America,Columbia,0.0,111,38.95207847,-92.33390955
United States of America,Columbia,0.0,111,34.0399752,-80.89998214
United States of America,Nashville,0.0,110,36.16997438,-86.77998499
United States of America,Alexandria,0.0,110,38.82043276,-77.09998153
United States of America,Alexandria,0.0,110,31.31109784,-92.44501388
United States of America,Canton,0.0,107,40.79886497,-81.37863509
United States of America,Kansas City,0.0,103,39.11358052,-94.63014638
United States of America,Kansas City,0.0,103,39.10708851,-94.60409422
United States of America,Baltimore,0.0,103,39.29999005,-76.61998499
United States of America,Pasadena,0.0,101,29.66086265,-95.14774296
United States of America,Pasadena,0.0,101,34.16038129,-118.1388719
United States of America,Lynchburg,2.0,99,37.4136194,-79.14246668
United States of America,Charleston,0.0,98,32.79237693,-79.99210474
United States of America,Charleston,0.0,98,38.34973798,-81.63272811
United States of America,Fort Lauderdale,0.0,97,26.13606488,-80.14178552
United States of America,Bremerton,0.0,94,47.57359552,-122.6420175
Ireland,Dublin,1.0,92,53.33306114,-6.248905682
United States of America,Grand Rapids,0.0,90,42.96371991,-85.66994938
United States of America,Medford,1.0,88,42.32662701,-122.8744227
Canada,Edmonton,0.0,86,53.55002464,-113.4999819
United States of America,Knoxville,0.0,86,35.97001243,-83.92003036
United States of America,Honolulu,0.0,85,21.30687644,-157.8579979
United States of America,Omaha,0.0,85,41.24000083,-96.00999007
United States of America,Laurel,0.0,84,31.69737917,-89.1392725
United States of America,Lancaster,0.0,83,39.71921511,-82.6053044
United States of America,Lancaster,0.0,83,40.03777447,-76.30576644
United States of America,Lancaster,0.0,83,34.69804873,-118.135823
United States of America,Virginia Beach,0.0,83,36.85321433,-75.97831873
United States of America,Durham,0.0,83,35.99995892,-78.91999964
Peru,Lima,0.0,83,-12.04801268,-77.05006209
United States of America,Duluth,0.0,83,46.78333173,-92.10637822
United States of America,Milwaukee,0.0,82,43.05265505,-87.91996708
United States of America,Olympia,0.0,80,47.03804486,-122.899434
United States of America,Albuquerque,0.0,79,35.10497479,-106.6413308
United States of America,Santa Cruz,2.0,79,36.97194629,-122.0263904
United States of America,Asheville,0.0,79,35.60119773,-82.55414474
United States of America,Scottsdale,0.0,78,33.69234784,-111.8680402
United Kingdom,London,0.0,78,51.49999473,-0.116721844
United States of America,Irvine,0.0,77,33.68041058,-117.8299502
United States of America,Tallahassee,1.0,77,30.44998761,-84.28003422
United States of America,Oklahoma City,0.0,76,35.47004295,-97.51868351
United States of America,Greenville,0.0,76,33.41037539,-91.06168746
United States of America,Greenville,0.0,76,34.85292299,-82.3941545
United States of America,Greenville,0.0,76,35.61287661,-77.3666836
United States of America,Birmingham,1.0,74,33.53000633,-86.82499516
Canada,Vancouver,1.0,74,49.27341658,-123.1216442
United States of America,Eureka,0.0,74,40.80222394,-124.1474974
United States of America,Des Moines,1.0,73,41.57998008,-93.61998092
United States of America,Boulder,0.0,72,40.03844627,-105.246093
United States of America,Berkeley,0.0,71,37.87390139,-122.271152
United States of America,New Orleans,0.0,70,29.99500246,-90.03996688
United States of America,Riverside,0.0,69,33.94194501,-117.3980386
United States of America,Lexington,0.0,69,38.05001467,-84.50002079
United States of America,Aurora,0.0,69,39.69585736,-104.808497
United States of America,Aurora,0.0,69,41.76539512,-88.29999557
United States of America,Cleveland,0.0,68,41.4699868,-81.69499821
United States of America,Lincoln,0.0,66,40.81997479,-96.68000086
United States of America,Jackson,0.0,66,35.61486615,-88.81389185
United States of America,Jackson,0.0,66,32.29881533,-90.18499679
United States of America,Tampa,0.0,66,27.94698793,-82.45862085
New Zealand,Auckland,0.0,66,-36.850013,174.7649808
United States of America,Marietta,0.0,65,33.95561342,-84.54324813
United States of America,Lansing,0.0,65,42.73352724,-84.54673629
United States of America,Greensboro,0.0,64,36.07000633,-79.80002344
Australia,Brisbane,0.0,64,-27.45503091,153.0350927
United Kingdom,Glasgow,0.0,62,55.87440472,-4.250707236
United States of America,Bloomington,0.0,62,40.48459475,-88.99359664
United States of America,Bloomington,0.0,62,39.16565716,-86.52640873
United States of America,Jacksonville,0.0,61,34.75432436,-77.43055567
United States of America,Jacksonville,0.0,61,30.33002077,-81.66998682
United States of America,Mobile,0.0,61,30.68002525,-88.04998499
United States of America,Tucson,0.0,60,32.20499676,-110.8899862
United States of America,Wichita,0.0,58,37.71998313,-97.32998702
United States of America,Bozeman,0.0,58,45.68009157,-111.0378325
United States of America,Las Cruces,0.0,58,32.31261293,-106.7778083
United States of America,Bakersfield,0.0,58,35.36997154,-119.0199809
Japan,Tokyo,0.0,58,35.68501691,139.7514074
United States of America,San Marcos,0.0,58,29.88307131,-97.94111251
United States of America,Decatur,0.0,57,39.8407064,-88.95473596
South Korea,Seoul,1.0,56,37.5663491,126.999731
United States of America,Vancouver,0.0,55,45.63030133,-122.6399925
Germany,Berlin,0.0,55,52.52181866,13.40154862
Canada,Courtenay,0.0,54,49.68333559,-124.9999777
United States of America,Memphis,0.0,54,35.1199868,-89.99999516
United States of America,Mesa,0.0,53,33.42391461,-111.7360844
United States of America,Spokane,0.0,52,47.66999595,-117.4199494
United States of America,Garden City,0.0,51,37.97521303,-100.8640866
United States of America,Tacoma,0.0,51,47.21131594,-122.5150131
United States of America,Charlottesville,1.0,50,38.02918907,-78.47692591
Canada,Hamilton,1.0,50,43.24998151,-79.82999577
United States of America,Whittier,0.0,50,60.78415672,-148.6776797
United States of America,Chattanooga,1.0,48,35.06998985,-85.25000086
United States of America,Farmington,0.0,47,36.75415061,-108.1860944
United States of America,Salem,0.0,47,42.5224989,-70.88309175
United States of America,Salem,0.0,47,44.92807029,-123.0238967
United States of America,Fresno,0.0,47,36.7477169,-119.7729841
United States of America,Anchorage,0.0,47,61.21996991,-149.9002149
United States of America,Watertown,0.0,46,43.97515688,-75.91106185
United States of America,Cedar Rapids,0.0,46,41.96998212,-91.66002303
United States of America,West Palm Beach,0.0,46,26.74501996,-80.12362126
United States of America,Allentown,0.0,45,40.59998822,-75.50002751
United States of America,Long Beach,0.0,45,33.78696739,-118.1580439
United States of America,Peoria,0.0,45,40.69998212,-89.67004114
United States of America,Modesto,0.0,44,37.65541343,-120.9899899
Canada,Saskatoon,1.0,44,52.17003135,-106.6699854
United States of America,Sarasota,0.0,44,27.33612083,-82.53078699
Sweden,Stockholm,0.0,44,59.35075995,18.09733473
United States of America,Everett,0.0,43,47.9604175,-122.1999677
United States of America,Mansfield,0.0,42,40.75832481,-82.51554244
United States of America,Glendale,0.0,42,33.58194114,-112.1958238
United States of America,Hilo,0.0,42,19.69999778,-155.0900273
United States of America,Redding,0.0,42,40.58704327,-122.3905762
United States of America,Bowling Green,1.0,41,41.37474713,-83.65139042
United States of America,Bowling Green,1.0,41,36.99069948,-86.44364893
United States of America,Florence,0.0,40,34.79969627,-87.67724288
United States of America,Florence,0.0,40,34.19567629,-79.76279057
United States of America,Detroit,0.0,40,42.32996014,-83.08005579
United States of America,Dayton,0.0,40,39.750376,-84.19998743
Canada,Sarnia,0.0,40,42.96663963,-82.3999681
United States of America,Anderson,0.0,39,34.50374534,-82.6502629
United States of America,Athens,0.0,39,33.96129783,-83.3780221
United States of America,Los Alamos,0.0,38,35.89110252,-106.2977084
United States of America,Evansville,0.0,38,37.97469627,-87.5558291
Canada,Victoria,0.0,38,48.43328269,-123.3500009
United States of America,Baton Rouge,0.0,38,30.45794578,-91.14015812
Canada,London,0.0,38,42.9699986,-81.24998661
United States of America,Huntsville,0.0,38,30.72376935,-95.55058659
United States of America,Huntsville,0.0,38,34.71995953,-86.60999536
United States of America,Stamford,0.0,38,41.05334556,-73.53919112
United States of America,Lafayette,0.0,37,40.41720868,-86.87824772
United States of America,Lafayette,0.0,37,30.19997703,-92.01994938
United States of America,Appleton,0.0,37,44.26867902,-88.40050623
United States of America,Concord,0.0,37,43.20807192,-71.53804712
United States of America,Norfolk,0.0,36,42.02871238,-97.43359827
United States of America,Norfolk,0.0,36,36.84995872,-76.28000574
United States of America,Beaufort,0.0,36,32.43216636,-80.68950403
United States of America,Burlington,0.0,36,40.80793418,-91.11276961
United States of America,Burlington,0.0,36,44.47579816,-73.21246688
United States of America,Sanford,0.0,36,28.78995974,-81.27998478
United States of America,Murfreesboro,0.0,36,35.84596315,-86.39026717
United States of America,Pocatello,0.0,36,42.87134829,-112.4447234
United States of America,Davenport,0.0,35,41.55398684,-90.58753036
United States of America,New Haven,0.0,35,41.33038291,-72.90000533
United States of America,San Mateo,0.0,35,37.55691815,-122.3130616
United States of America,Annapolis,0.0,34,38.9783301,-76.49249923
United States of America,Arcata,0.0,34,40.88519045,-124.0882245
United States of America,Syracuse,0.0,32,43.04999371,-76.15001367
United Kingdom,Leeds,0.0,32,53.83000755,-1.580017539
United States of America,Lubbock,0.0,32,33.58000327,-101.8799677
United States of America,Erie,0.0,32,42.12992067,-80.08499313
United States of America,Spring Hill,0.0,32,28.47894513,-82.54771102
United States of America,Clarksville,0.0,31,36.5300816,-87.35943282
United States of America,Reno,0.0,31,39.52997601,-119.8200096
United States of America,Albany,0.0,31,44.62049217,-123.086942
United States of America,Albany,0.0,31,31.57873008,-84.15582992
United States of America,Albany,0.0,31,42.67001691,-73.81994918
United States of America,Toledo,0.0,31,41.67002626,-83.57997359
United States of America,Santa Barbara,0.0,31,34.43498985,-119.7199899
United States of America,Harrisburg,0.0,31,40.27359987,-76.88474919
United States of America,Roswell,0.0,31,33.39453656,-104.5224679
United States of America,Bay City,0.0,30,43.5944566,-83.88889531
United States of America,Bay City,0.0,30,28.98111086,-95.96435978
Malaysia,Kuala Lumpur,1.0,30,3.166665872,101.6999833
United States of America,Lake City,0.0,30,30.18971926,-82.63974675
United States of America,Dover,0.0,30,39.15808657,-75.524703
United States of America,Trenton,0.0,30,40.2169625,-74.74335535
United States of America,Belleville,0.0,30,38.52515362,-90.0002277
United States of America,New Braunfels,0.0,30,29.6978113,-98.12632084
United States of America,Sioux Falls,0.0,29,43.54998903,-96.7299978
United States of America,Helena,0.0,29,46.59274904,-112.035291
United States of America,Santa Rosa,0.0,28,38.45040367,-122.6999889
United States of America,Eugene,0.0,28,44.05001019,-123.1000161
United Kingdom,Nottingham,0.0,28,52.97034426,-1.170016725
United States of America,Jonesboro,0.0,28,35.84257835,-90.70416406
United Kingdom,Manchester,0.0,28,53.50041526,-2.247987103
United States of America,Evanston,0.0,27,42.04834943,-87.69995467
United States of America,Grants Pass,0.0,27,42.43954002,-123.3271857
United Kingdom,Aberdeen,0.0,26,57.17039797,-2.079987021
United States of America,Palm Springs,0.0,26,33.77735557,-116.5330526
United States of America,Fredericksburg,0.0,26,38.30351341,-77.46078638
United States of America,Frankfort,0.0,26,38.2008065,-84.87335718
Guyana,Georgetown,0.0,26,6.801973693,-58.16702865
United States of America,Clarksburg,0.0,25,39.28327272,-80.33691573
United States of America,Youngstown,0.0,25,41.09969932,-80.64973902
Canada,Halifax,0.0,24,44.65002525,-63.60000452
Canada,Kitchener,0.0,24,43.44999514,-80.50000655
United States of America,Carson City,1.0,24,39.16384849,-119.7663953
United States of America,New Bedford,0.0,24,41.6561253,-70.94469833
United States of America,State College,0.0,24,40.79372316,-77.8602452
United States of America,Bellingham,0.0,23,48.76013613,-122.4869269
United States of America,Ithaca,0.0,23,42.44057355,-76.4969434
United States of America,Denton,0.0,22,33.21576194,-97.12883651
United States of America,Bend,0.0,22,44.071921,-121.3099962
United States of America,Little Rock,0.0,22,34.73608258,-92.33109318
United States of America,Grand Island,0.0,22,40.92226829,-98.35798629
United States of America,Covington,0.0,22,39.0840084,-84.50859908
United States of America,Auburn,0.0,22,32.60970074,-85.48083948
United States of America,Odessa,0.0,22,31.84556134,-102.3672248
United States of America,Spartanburg,0.0,22,34.94942873,-81.93227055
Indonesia,Jakarta,0.0,22,-6.174417705,106.8294376
United Kingdom,Liverpool,0.0,22,53.41600181,-2.917997886
Philippines,Quezon City,0.0,22,14.6504352,121.0299662
United States of America,Bangor,0.0,22,44.80115297,-68.77834477
United States of America,Laredo,0.0,22,27.50613629,-99.50721847
United States of America,Lowell,0.0,21,42.63368837,-71.31669112
United States of America,Rockford,0.0,21,42.26970542,-89.06969019
France,Paris,0.0,21,48.86669293,2.333335326
United States of America,Chico,0.0,21,39.72862022,-121.8363982
Austria,Innsbruck,0.0,20,47.28040733,11.4099906
Australia,Sydney,0.0,20,-33.92001097,151.1851798
United States of America,Jamestown,0.0,20,46.90601158,-98.70297815
United States of America,Jamestown,0.0,20,42.09736452,-79.23553593
United States of America,Monroe,0.0,20,32.50960349,-92.11919397
United States of America,Muskegon,0.0,20,43.23458193,-86.24836369
United States of America,Marion,0.0,20,40.55833701,-85.65917485
United States of America,Lawrence,0.0,20,38.95975242,-95.25522994
United States of America,Iowa City,1.0,20,41.66108624,-91.52997929
United States of America,Astoria,0.0,20,46.18838096,-123.8299974
United States of America,Akron,1.0,20,41.07039878,-81.51999597
Barbados,Bridgetown,0.0,20,13.10200258,-59.61652674
United States of America,Newport,0.0,20,41.49039899,-71.31335799
United States of America,Gainesville,0.0,20,29.65138002,-82.32503727
United States of America,Altoona,0.0,20,40.51859784,-78.39496708
United States of America,Rapid City,0.0,20,44.08055096,-103.2305571
United States of America,Yuma,0.0,20,32.68527753,-114.6236084
United States of America,Pensacola,0.0,20,30.42112632,-87.21693506
United States of America,Naples,0.0,20,26.14205935,-81.79499211
United Kingdom,Birmingham,0.0,20,52.47497398,-1.919996787
Canada,Moncton,0.0,20,46.08334861,-64.76667749
United States of America,Melbourne,0.0,20,28.08331036,-80.60832035
Canada,Nanaimo,0.0,20,49.14602021,-123.9342911
United States of America,Racine,0.0,19,42.72771364,-87.81183415
Japan,Kitakyushu,0.0,19,33.87039899,130.8200146
United States of America,York,0.0,19,39.96292116,-76.72804041
United States of America,Roanoke,0.0,19,37.27119916,-79.94161686
Poland,Gliwice,0.0,18,50.3303762,18.67001257
China,Beijing,0.0,18,39.92889223,116.3882857
United States of America,Augusta,0.0,18,33.46081158,-81.98498051
United States of America,Augusta,0.0,18,44.31056276,-69.77998906
United States of America,Clovis,0.0,18,34.40506919,-103.2047706
United States of America,Midland,0.0,18,32.030718,-102.0974996
United States of America,Myrtle Beach,0.0,18,33.68891136,-78.8869784
United States of America,San Bernardino,0.0,18,34.12038373,-117.3000342
United States of America,Kingsport,0.0,18,36.54832338,-82.56194788
United States of America,Ambler,0.0,18,67.08648521,-157.8514091
United States of America,Titusville,0.0,18,28.61234784,-80.80779138
United Arab Emirates,Dubai,0.0,18,25.22999615,55.27997432
United States of America,Winona,0.0,18,44.0504236,-91.63919743
Greece,Athens,0.0,18,37.98332623,23.73332108
United States of America,Waterville,0.0,18,44.5518917,-69.64578536
United States of America,Ocala,0.0,18,29.1873515,-82.14026819
United States of America,Monticello,0.0,18,37.87178265,-109.3421995
United States of America,Hampton,0.0,18,37.03002525,-76.34994979
Romania,Pitesti,0.0,18,44.85631757,24.87583533
United States of America,Grand Junction,0.0,18,39.09385276,-108.5499998
United States of America,Utica,0.0,18,43.10117922,-75.23306706
United States of America,La Crosse,0.0,18,43.80136904,-91.23942855
United States of America,Winchester,0.0,18,39.1787313,-78.16663477
Spain,Madrid,0.0,17,40.40002626,-3.683351686
United States of America,Stillwater,0.0,17,36.13535118,-97.06829757
United States of America,El Paso,0.0,17,31.77998395,-106.5099952
United States of America,Miami Beach,0.0,17,25.80991953,-80.13178111
United States of America,Owensboro,0.0,17,37.77457928,-87.11332381
United States of America,Cape Coral,0.0,16,26.60290977,-81.97968368
United States of America,New Iberia,0.0,16,30.00358075,-91.81830794
United States of America,Traverse City,0.0,16,44.76844179,-85.62217452
United States of America,Paterson,0.0,16,40.91999453,-74.17000533
United States of America,Kalamazoo,0.0,16,42.29215883,-85.58718958
Canada,Kelowna,0.0,16,49.89998903,-119.4833118
Canada,Wetaskiwin,1.0,16,52.96657188,-113.3832966
United States of America,Lakeville,0.0,16,44.65010276,-93.24251042
United Kingdom,Reading,0.0,16,51.46997072,-0.980028322
United States of America,Cheyenne,0.0,16,41.14000694,-104.8197107
Canada,Regina,0.0,16,50.45003298,-104.6170099
United Kingdom,Belfast,0.0,16,54.60001223,-5.960034425
Belgium,Brussels,0.0,16,50.83331708,4.333316608
United States of America,Oceanside,0.0,16,33.2204645,-117.3349675
United States of America,Oshkosh,0.0,16,44.02510215,-88.54251306
Norway,Oslo,0.0,16,59.91669029,10.74997921
Canada,Kingston,0.0,16,44.23371991,-76.48330082
Fiji,Suva,0.0,15,-18.13301593,178.4417073
United States of America,Morgantown,0.0,15,39.62981488,-79.95606043
United States of America,Carlsbad,0.0,15,32.420565,-104.2282998
United States of America,Beaumont,0.0,14,30.08626304,-94.10168278
United States of America,Dublin,0.0,14,32.53745709,-82.91828272
Venezuela,Caracas,0.0,14,10.50099855,-66.91703719
United States of America,Topeka,0.0,14,39.05000531,-95.66998499
Japan,Yokohama,0.0,14,35.32002626,139.5800484
United States of America,Mankato,0.0,14,44.16362083,-93.99915674
United Kingdom,Leicester,0.0,14,52.62997744,-1.133248943
United States of America,Metairie,0.0,14,29.98386619,-90.15277653
United States of America,Wichita Falls,0.0,14,33.91362632,-98.49306848
United States of America,Hagerstown,0.0,14,39.64164878,-77.72027958
United States of America,Janesville,0.0,14,42.68262596,-89.02157943
United States of America,Elgin,0.0,14,42.03946108,-88.28991866
United States of America,Abilene,0.0,14,32.4486253,-99.73278609
Norway,Trondheim,0.0,14,63.41665753,10.41666622
United States of America,Danville,0.0,14,36.58625388,-79.39531946
Australia,Melbourne,0.0,14,-37.82003131,144.9750162
United States of America,Binghamton,0.0,14,42.09901817,-75.91832239
United States of America,Worcester,0.0,14,42.27042889,-71.80002079
Canada,Windsor,0.0,14,44.98059938,-64.12911951
Canada,Windsor,0.0,14,42.33329327,-83.03334029
United States of America,Pueblo,0.0,14,38.2803882,-104.6300066
United States of America,Wausau,0.0,14,44.95915367,-89.6299919
Dominican Republic,Santo Domingo,1.0,14,18.47007285,-69.90008508
United States of America,Centralia,0.0,14,46.71641075,-122.9529708
United Kingdom,Oxford,0.0,14,51.7704175,-1.249986004
United States of America,Stockton,0.0,14,37.95813397,-121.289739
Belgium,Antwerpen,0.0,13,51.22037355,4.415017048
United States of America,Independence,0.0,13,39.09111391,-94.41528121
United States of America,Monterey,0.0,13,36.6002582,-121.8935781
Kenya,Nairobi,0.0,13,-1.283346742,36.81665686
United States of America,Providence,0.0,13,41.82110231,-71.4149797
United States of America,Powell,0.0,12,44.75867495,-108.7584367
United States of America,Missoula,0.0,12,46.87224103,-113.9930526
United Kingdom,Southampton,0.0,12,50.90003135,-1.399976849
Ecuador,Quito,0.0,12,-0.214988181,-78.50005111
Canada,Chilliwack,0.0,12,49.16664878,-121.949983
United States of America,Vallejo,0.0,12,38.11194887,-122.258052
United States of America,Longview,0.0,12,32.50053428,-94.74027429
United States of America,Longview,0.0,12,46.13871991,-122.9369511
Portugal,Lisbon,0.0,12,38.72272288,-9.144866305
Australia,Canberra,0.0,12,-35.28302855,149.1290262
Canada,Abbotsford,0.0,12,49.05037681,-122.2999874
Puerto Rico,San Juan,0.0,12,18.44002301,-66.12997929
United States of America,Grand Forks,0.0,12,47.92527753,-97.0324858
China,Qingdao,0.0,12,36.08997927,120.3300089
United States of America,Killeen,0.0,12,31.11728538,-97.72748214
United States of America,Bishop,0.0,12,37.36395835,-118.394076
United States of America,Fort Wayne,0.0,12,41.08039817,-85.12998234
Spain,Granada,0.0,12,37.16497825,-3.585011435
United States of America,Green Bay,0.0,12,44.5299809,-88.00001388
United States of America,Hartford,0.0,12,41.77002016,-72.67996708
Austria,Vienna,0.0,12,48.20001528,16.36663896
Serbia,Belgrade,0.0,12,44.81864545,20.46799068
United States of America,Panama City,0.0,12,30.15861005,-85.65527328
United States of America,Wheeling,0.0,12,40.06431032,-80.72107833
United Kingdom,Brighton,0.0,12,50.83034568,-0.169974407
Turkey,Istanbul,0.0,12,41.10499615,29.01000159
Ecuador,Cuenca,0.0,12,-2.89999225,-78.99999475
United States of America,Manchester,0.0,12,42.99599184,-71.45528731
United States of America,Calais,0.0,12,45.16598859,-67.24239201
United States of America,Eau Claire,0.0,11,44.81135907,-91.49835331
Nigeria,Lagos,0.0,11,6.443261653,3.391531071
United States of America,Alton,0.0,10,38.89099693,-90.18422164
United Kingdom,Sheffield,0.0,10,53.36667666,-1.499996583
United States of America,Jefferson City,0.0,10,38.57662335,-92.17332503
United States of America,Brunswick,1.0,10,31.1496865,-81.49165145
United States of America,Salisbury,0.0,10,35.67078005,-80.4744784
Thailand,Bangkok,0.0,10,13.74999921,100.5166447
United Kingdom,Norwich,0.0,10,52.63036501,1.300013386
United States of America,Poughkeepsie,0.0,10,41.70023114,-73.92141585
Netherlands,Rotterdam,0.0,10,51.9199691,4.479974323
United States of America,Homer,0.0,10,59.64293439,-151.5482797
United States of America,South Bend,0.0,10,41.68330711,-86.25001734
United States of America,Meridian,0.0,10,32.36418601,-88.70361434
Jamaica,Kingston,0.0,10,17.97707662,-76.76743371
United States of America,Quincy,0.0,10,39.9359719,-91.40972823
United States of America,Idaho Falls,0.0,10,43.46668662,-112.0333014
United States of America,Lawton,0.0,10,34.59903668,-98.40997278
Russia,Moscow,0.0,10,55.75216412,37.61552283
United States of America,Montgomery,0.0,10,32.36160219,-86.27918868
United States of America,Visalia,0.0,10,36.32502952,-119.3160094
United States of America,Waterloo,0.0,10,42.49315432,-92.34279789
United States of America,Crestview,0.0,10,30.75420677,-86.57260746
Canada,Fredericton,0.0,10,45.94999758,-66.63330774
United States of America,Sheboygan,0.0,10,43.75082949,-87.71442407
United States of America,Aberdeen,0.0,10,46.97489626,-123.8143911
United States of America,Aberdeen,0.0,10,45.46511761,-98.48640222
United States of America,Provo,0.0,10,40.24889854,-111.63777
United States of America,Yakima,0.0,10,46.60223167,-120.5046965
Poland,Warsaw,0.0,10,52.25000063,20.99999955
United States of America,Kokomo,0.0,10,40.48676516,-86.13364201
United States of America,Harrisonburg,0.0,10,38.44942181,-78.86917586
United States of America,Douglas,0.0,10,42.75647158,-105.3845341
United States of America,Douglas,0.0,10,31.50777834,-82.85068994
United States of America,Douglas,0.0,10,31.35864016,-109.5483627
Canada,Peterborough,0.0,10,44.29996909,-78.33326542
United States of America,Amarillo,0.0,10,35.22998008,-101.8299966
United States of America,Manhattan,0.0,10,39.19402753,-96.59243514
United States of America,Shreveport,0.0,10,32.50001752,-93.77002344
New Zealand,Whangarei,0.0,10,-35.71995278,174.3100215
Australia,Adelaide,0.0,10,-34.93498777,138.6000048
United States of America,Coral Gables,0.0,10,25.71541872,-80.29107874
Estonia,Tallinn,0.0,10,59.43387738,24.72804073
United States of America,Bar Harbor,0.0,10,44.38789654,-68.20437464
Ireland,Cork,0.0,10,51.89860089,-8.49577112
United States of America,Norman,0.0,9,35.22791302,-97.34414636
United States of America,Lumberton,0.0,9,34.62720034,-79.01190617
United States of America,New London,0.0,8,41.3555235,-72.10002832
United States of America,Goldsboro,0.0,8,35.38513857,-77.99305363
Ireland,Tralee,0.0,8,52.26669212,-9.716652671
United States of America,Fort Smith,0.0,8,35.38622377,-94.39835718
Saudi Arabia,Jeddah,0.0,8,21.51688946,39.21919755
United States of America,Paragould,0.0,8,36.05708722,-90.50288436
United States of America,Houma,0.0,8,29.59593121,-90.71948613
United States of America,Daytona Beach,0.0,8,29.21055422,-81.0230754
United States of America,Vero Beach,0.0,8,27.64225201,-80.39112431
United Kingdom,Edinburgh,0.0,8,55.94832786,-3.219090618
United States of America,Rocky Mount,0.0,8,35.93799888,-77.79076624
Canada,Dauphin,0.0,8,51.15001609,-100.0499502
Honduras,Tegucigalpa,0.0,8,14.1020449,-87.21752934
Italy,Milan,0.0,8,45.4699752,9.20500891
United States of America,Kearney,0.0,8,40.70070559,-99.08114628
Italy,Rome,0.0,8,41.89595563,12.48325842
United Kingdom,Cambridge,0.0,8,52.20039125,0.116623086
India,Hyderabad,1.0,8,17.39998313,78.47995357
United States of America,Eagle,0.0,8,64.78799501,-141.1999966
Canada,Lethbridge,0.0,8,49.70049217,-112.8332784
United States of America,Macon,0.0,8,32.85038373,-83.63004806
United States of America,Waukesha,0.0,8,43.0116498,-88.23136926
United States of America,Freeport,0.0,8,28.95948427,-95.35687748
United States of America,Corpus Christi,0.0,8,27.74281435,-97.40189478
Norway,Lillehammer,0.0,8,61.13328269,10.5000203
United States of America,Dodge City,0.0,8,37.76005821,-100.018195
Bolivia,La Paz,0.0,8,-16.49797361,-68.14998519
United States of America,Johnson City,0.0,8,36.31332481,-82.35361434
United States of America,Montpelier,0.0,8,44.25997154,-72.57581323
United States of America,Montpelier,0.0,8,42.32262209,-111.2969123
United States of America,Kingsville,0.0,8,27.51595481,-97.8558464
United States of America,Kalispell,0.0,8,48.19776735,-114.3159786
Egypt,Cairo,0.0,8,30.04996035,31.24996822
United States of America,Muncie,0.0,7,40.19375979,-85.38637496
United States of America,Alpine,0.0,7,30.36071657,-103.6650009
United States of America,Salinas,0.0,7,36.68221702,-121.6416555
United States of America,Kissimmee,0.0,7,28.29205731,-81.4077806
United States of America,Casper,0.0,7,42.86661989,-106.3124878
Portugal,Porto,0.0,7,41.15000633,-8.620001263
United States of America,Moorhead,0.0,7,46.87430808,-96.74219344
United States of America,Conroe,0.0,7,30.31206321,-95.45586369
United States of America,Elmira,0.0,7,42.09012982,-76.80803552
United States of America,Pittsfield,0.0,7,42.44819582,-73.25982833
United States of America,Hattiesburg,0.0,6,31.32727256,-89.2902452
United States of America,Texarkana,0.0,6,33.44210472,-94.03747481
Sweden,Karlstad,0.0,6,59.36713727,13.49994055
United States of America,Minot,0.0,6,48.23249392,-101.2958173
Peru,Chiclayo,0.0,6,-6.762908916,-79.83658452
Egypt,Suez,0.0,6,30.00497601,32.54994055
United Kingdom,Swansea,0.0,6,51.6299868,-3.950002077
Brazil,Natal,0.0,6,-6.983825664,-60.26994938
Brazil,Natal,0.0,6,-5.780023174,-35.24000431
Ukraine,Kiev,0.0,6,50.43336733,30.51662797
Australia,Inverell,0.0,6,-29.7667761,151.1125744
United States of America,Santa Maria,0.0,6,34.94012697,-120.4366386
United States of America,Blacksburg,0.0,6,37.22941876,-80.41419784
Austria,Graz,0.0,6,47.0777582,15.41000484
United States of America,Rock Hill,0.0,6,34.94038535,-81.03000004
Italy,Turin,0.0,6,45.07038719,7.669960489
Taiwan,Taipei,0.0,6,25.03583333,121.5683333
United States of America,Madisonville,0.0,6,37.33274579,-87.5022148
United Kingdom,Sunderland,0.0,6,54.92001853,-1.380029746
United States of America,Cleburne,0.0,6,32.35152529,-97.39248967
Brazil,Rio Branco,0.0,6,-9.966589336,-67.80000655
United States of America,Houlton,0.0,6,46.12551658,-67.83971989
United States of America,Victorville,0.0,6,34.5365082,-117.2903191
Canada,Cochrane,0.0,6,49.06701662,-81.01656417
United States of America,Palmer,0.0,6,61.59971417,-149.1126919
Philippines,Cotabato,0.0,6,7.216909606,124.2484261
Slovenia,Ljubljana,0.0,6,46.05528831,14.51496903
Norway,Kristiansand,0.0,6,58.16664207,8.000017862
United States of America,Ontario,0.0,6,44.02662661,-116.9618895
United States of America,Fort Collins,0.0,6,40.56068829,-105.0588693
United States of America,La Grange,0.0,6,33.03647056,-85.03187464
United States of America,Leesburg,0.0,6,28.81050112,-81.88333297
Canada,Kamloops,0.0,6,50.66666058,-120.3332858
Sweden,Helsingborg,0.0,6,56.05049217,12.70004106
Indonesia,Manado,0.0,6,1.480024637,124.8499914
United States of America,Corvallis,0.0,6,44.57235557,-123.2799793
Brazil,Porto Alegre,0.0,6,-30.05001463,-51.20001205
Canada,Brandon,0.0,6,49.83327476,-99.94998214
China,Tianjin,0.0,6,39.13002626,117.2000191
United States of America,Kennewick,0.0,6,46.21137697,-119.1360979
Finland,Helsinki,0.0,6,60.17556337,24.93412634
South Africa,Cape Town,0.0,6,-33.92001097,18.43498816
New Zealand,Hamilton,0.0,6,-37.77000853,175.3000386
United States of America,Salina,0.0,6,38.82467023,-97.6071794
Canada,Sherbrooke,0.0,6,45.40000531,-71.89998885
Italy,Naples,0.0,6,40.84002525,14.24501135
United States of America,Hancock,0.0,6,47.12729006,-88.5808053
United States of America,Pierre,0.0,6,44.36833701,-100.350552
Brazil,Belo Horizonte,0.0,6,-19.91502602,-43.91500452
Croatia,Zagreb,0.0,6,45.80000673,15.99999467
Suriname,Paramaribo,0.0,6,5.83503013,-55.16703089
United States of America,Gillette,0.0,6,44.28317425,-105.5052503
Germany,Hamburg,0.0,6,53.55002464,9.999999144
United States of America,Tulsa,0.0,6,36.12000327,-95.93002079
United States of America,Orangeburg,0.0,6,33.49680422,-80.86223251
Mexico,Puebla,0.0,6,19.04995994,-98.20003727
United States of America,Durango,0.0,6,37.27564333,-107.8799891
Japan,Osaka,0.0,6,34.75003522,135.4601448
United States of America,Dillon,0.0,6,45.21567548,-112.6839852
United States of America,Billings,0.0,6,45.78830202,-108.5400004
Pakistan,Lahore,0.0,6,31.55997154,74.35002478
United States of America,Wailuku,0.0,6,20.89147544,-156.5047213
United States of America,Coffeyville,0.0,6,37.03806093,-95.6263184
United States of America,Butte,0.0,6,46.0038961,-112.5338394
Canada,Peace River,0.0,6,56.23332338,-117.2832911
United Kingdom,Bradford,0.0,6,53.80003522,-1.749981325
Canada,Camrose,0.0,6,53.01669802,-112.8166386
Australia,Perth,0.0,6,-31.95501463,115.8399987
Germany,Kassel,0.0,6,51.30000694,9.500029662
United States of America,Fargo,0.0,6,46.8772278,-96.7894257
United States of America,Kingman,0.0,6,35.18987917,-114.0522221
United Kingdom,Greenock,1.0,6,55.93329002,-4.750030763
United States of America,Joplin,0.0,6,37.08459556,-94.51307886
Australia,Geelong,0.0,6,-38.16749505,144.3956335
Japan,Kawasaki,0.0,6,35.52998761,139.705002
Netherlands,Haarlem,0.0,6,52.38043194,4.629991006
United States of America,Fort Pierce,0.0,6,27.44678591,-80.3258053
United States of America,Valdosta,0.0,6,30.8328583,-83.27859664
Vietnam,Hanoi,0.0,6,21.03332725,105.8500142
United States of America,Glasgow,0.0,6,48.18396975,-106.6352588
Germany,Leipzig,0.0,6,51.33540529,12.40998124
United States of America,Bullhead City,0.0,6,35.14817629,-114.5674878
Argentina,Buenos Aires,0.0,6,-34.60250161,-58.39753137
United Kingdom,Portsmouth,0.0,6,50.80034751,-1.080022218
Portugal,Leiria,0.0,6,39.73899603,-8.804996462
United States of America,Sidney,0.0,6,41.13980023,-102.9782727
United States of America,Casa Grande,0.0,6,32.87937421,-111.7566258
Poland,Bialystok,0.0,6,53.15035911,23.1699963
Canada,Yellowknife,0.0,6,62.44201418,-114.3969814
United States of America,Nacogdoches,0.0,6,31.60374147,-94.65526656
Bulgaria,Varna,0.0,6,43.21564252,27.89528926
Argentina,Santa Fe,0.0,5,-31.62387205,-60.69000126
United States of America,Shawnee,0.0,5,35.34278973,-96.93378382
United States of America,San Luis Obispo,0.0,5,35.28318097,-120.6585889
Ghana,Accra,0.0,5,5.550034606,-0.21671574
Romania,Bucharest,0.0,4,44.4333718,26.09994665
Australia,Caloundra,0.0,4,-26.80003213,153.1333296
Canada,Whitehorse,0.0,4,60.71671897,-135.0499844
United States of America,Brownsville,0.0,4,25.91997988,-97.50000248
Canada,Corner Brook,0.0,4,48.94999534,-57.93334782
Netherlands,Amsterdam,0.0,4,52.34996869,4.916640176
South Africa,Johannesburg,0.0,4,-26.17004474,28.03000972
Indonesia,Kediri,0.0,4,-7.789616273,112.0000264
United States of America,Richland,0.0,4,46.29181134,-119.2911013
Mexico,Reynosa,0.0,4,26.07999595,-98.30003117
Canada,Red Deer,0.0,4,52.26664044,-113.8000411
United States of America,Dothan,0.0,4,31.22345461,-85.39058659
Indonesia,Bandung,0.0,4,-6.950029278,107.5700126
Germany,Essen,0.0,4,51.44999778,7.016615355
Ireland,Limerick,0.0,4,52.664704,-8.623050172
United States of America,Schenectady,0.0,4,42.81458173,-73.93996769
United States of America,Ogden,0.0,4,41.23237856,-111.9680341
United Kingdom,Cardiff,0.0,4,51.49999473,-3.22500757
Thailand,Chiang Mai,0.0,4,18.7999752,98.98004594
United States of America,Aiken,0.0,4,33.5494625,-81.72060388
India,Delhi,0.0,4,28.6699929,77.23000403
New Zealand,Wellington,0.0,4,-41.29997394,174.7832743
El Salvador,San Salvador,0.0,4,13.71000165,-89.20304122
United States of America,Dickinson,0.0,4,46.88399742,-102.7888011
United States of America,Greeley,0.0,4,40.41919822,-104.739974
United States of America,Hereford,0.0,4,34.82191713,-102.3985924
United States of America,Conway,0.0,4,35.09128054,-92.4513184
Mexico,Nogales,0.0,4,31.30500002,-110.9449958
United States of America,Waterbury,0.0,4,41.55000775,-73.05002202
United States of America,Harlingen,0.0,4,26.19755983,-97.69019759
United States of America,West Bend,0.0,4,43.42570721,-88.18333602
United States of America,Alpena,0.0,4,45.06160219,-83.43269576
Canada,Barrie,0.0,4,44.38376243,-79.7000037
United States of America,Brainerd,0.0,4,46.35800885,-94.20084986
Norway,Bergen,0.0,4,60.39100242,5.324522256
Hungary,Debrecen,0.0,4,47.53046958,21.63003861
United States of America,Saginaw,0.0,4,43.4194802,-83.95082951
United States of America,New Albany,0.0,4,38.3108773,-85.82128382
United Kingdom,Bournemouth,0.0,4,50.72999005,-1.900049684
United States of America,Kirksville,0.0,4,40.19368227,-92.58280908
United States of America,Oak Ridge,0.0,4,36.01065594,-84.26972477
United States of America,Lake Charles,0.0,4,30.22638369,-93.21718897
Ireland,Kilkenny,0.0,4,52.65454958,-7.252255291
Canada,Orillia,0.0,4,44.59997662,-79.41666183
Portugal,Viana Do Castelo,0.0,4,41.69623514,-8.844137484
United States of America,Galveston,0.0,4,29.301143,-94.7974801
Chile,Santiago,0.0,4,-33.45001382,-70.66704085
United States of America,Coos Bay,0.0,4,43.36661521,-124.2165888
Italy,Florence,0.0,4,43.78000083,11.25000036
United States of America,Dalton,0.0,4,34.76972394,-84.97030217
Spain,Barcelona,0.0,4,41.38329958,2.183370319
India,Bangalore,0.0,4,12.96999514,77.56000972
Switzerland,Lausanne,0.0,4,46.53042727,6.650022744
Jordan,Amman,0.0,4,31.95002525,35.93329993
Brazil,Fortaleza,0.0,4,-3.750017884,-38.57998132
United States of America,Elkhart,0.0,4,41.68294537,-85.96879419
United States of America,Kankakee,0.0,4,41.12036989,-87.86110763
Australia,Gold Coast,0.0,4,-28.08150429,153.4482458
United States of America,Sumter,0.0,4,33.92065432,-80.34172164
United States of America,Gary,0.0,4,41.58039349,-87.33000309
United States of America,Bristol,0.0,4,36.61152366,-82.17600244
Romania,Timisoara,0.0,4,45.75882062,21.22344844
Germany,Stuttgart,0.0,4,48.77997988,9.199996296
Costa Rica,Quesada,0.0,4,10.33049217,-84.43997278
United States of America,Edinburg,0.0,4,26.30318646,-98.1599622
United States of America,Lander,0.0,4,42.83300437,-108.7325985
Lithuania,Vilnius,0.0,4,54.68336631,25.31663529
Ireland,Galway,0.0,4,53.272393,-9.048812298
United States of America,Johnstown,0.0,4,40.32708498,-78.92222172
United Kingdom,Blackpool,0.0,4,53.83039512,-3.050005332
United States of America,Dubuque,0.0,4,42.50093162,-90.66445073
Bulgaria,Sofia,0.0,4,42.68334943,23.31665401
Italy,Ravenna,0.0,4,44.42037518,12.22001868
United States of America,Barstow,0.0,4,34.89901837,-117.0218858
Australia,Toowoomba,0.0,4,-27.56453327,151.9555204
United States of America,Hickory,0.0,4,35.7334894,-81.34140222
United Kingdom,Chester,0.0,4,53.20002016,-2.919987428
United States of America,Twin Falls,0.0,4,42.5609538,-114.4605693
United States of America,Cedar City,0.0,4,37.67742759,-113.061094
United States of America,Merced,0.0,4,37.30261843,-120.481933
Canada,Victoriaville,0.0,4,46.05040489,-71.96667729
United States of America,London,0.0,4,37.12888226,-84.08335372
Spain,Valencia,0.0,4,39.48501752,-0.400012046
Indonesia,Mataram,0.0,4,-8.579542217,116.1350195
United States of America,Gadsden,0.0,4,34.01455039,-86.00664718
Turkey,Balikesir,0.0,4,39.6503821,27.89001827
Finland,Lappeenranta,0.0,4,61.06705935,28.1833337
New Zealand,Tauranga,0.0,4,-37.69642129,176.1536299
United States of America,Bismarck,0.0,4,46.80831728,-100.7833163
United States of America,Delano,0.0,4,35.76193728,-119.2430681
Germany,Munich,0.0,4,48.12994204,11.57499345
Czech Republic,Prague,0.0,4,50.08333701,14.46597978
United States of America,Savannah,0.0,4,32.02110618,-81.10999516
Canada,Amherst,0.0,4,45.81656903,-64.21658187
Canada,Drummondville,0.0,4,45.88333498,-72.4833641
Cayman Islands,George Town,0.0,4,19.28043683,-81.32998173
United Kingdom,Bristol,0.0,4,51.44999778,-2.583315472
United States of America,Galena,0.0,4,64.73329551,-156.9269953
Brazil,Santos,0.0,4,-23.95372393,-46.33294266
United Kingdom,Ipswich,0.0,4,52.07034751,1.169995482
United States of America,Sherman,0.0,4,33.63599469,-96.60858403
Saint Lucia,Castries,0.0,4,14.00197349,-61.00000818
India,New Delhi,0.0,4,28.60002301,77.19998002
Morocco,Casablanca,0.0,4,33.59997622,-7.616367433
Canada,North Battleford,0.0,4,52.76663576,-108.2833494
Romania,Galati,0.0,4,45.45589337,28.04587439
South Africa,Port Elizabeth,0.0,3,-33.97003375,25.60002885
United States of America,Niagara Falls,0.0,2,43.09482302,-79.0369434
Australia,Hobart,0.0,2,-42.85000853,147.2950297
United States of America,Battle Creek,0.0,2,42.32109764,-85.17974675
United States of America,Alliance,0.0,2,42.10139528,-102.8701915
United States of America,Baytown,0.0,1,29.75584393,-94.96772811
Norway,Moss,0.0,1,59.43697797,10.66915727
United States of America,Caldwell,0.0,1,43.66096417,-116.6705378
United States of America,Juneau,0.0,1,58.31412661,-134.419997
New Zealand,Nelson,0.0,1,-41.29258421,173.2474507
United States of America,Williston,0.0,1,48.15678794,-103.6280005
United States of America,Paso Robles,0.0,1,35.6265967,-120.6899823
United States of America,Temple,0.0,1,31.10209251,-97.36300826
United States of America,Bridgeport,,1,41.17997866,-73.19996118
United States of America,Cumberland,0.0,1,39.65317263,-78.76277409
