country,city,clicks,views,lat,lng
United States of America,Los Angeles,0.00124835595979,0.00166433940677,33.98997825,-118.1799805
United States of America,New York,0.00212517740773,0.00240098661344,40.74997906,-73.98001693
United States of America,Chicago,0.00109602680993,0.00155921357029,41.82999066,-87.75005497
United States of America,Seattle,0.000873106102826,0.00114822575304,47.57000205,-122.339985
United States of America,Portland,0.000854529377234,0.00111257445183,43.67216158,-70.2455274
United States of America,Portland,0.000854529377234,0.00111257445183,45.52002382,-122.6799901
United States of America,San Francisco,0.000605601254301,0.000832632707299,37.74000775,-122.4599777
United States of America,Denver,0.000709630917616,0.000862121266791,39.73918805,-104.984016
United States of America,Houston,0.0008879674833,0.000900207329959,29.81997438,-95.33997929
United States of America,Philadelphia,0.000679908156669,0.000852358270511,39.99997316,-75.16999597
United States of America,Minneapolis,0.000535009697051,0.000732384377546,44.97997927,-93.25178634
United States of America,Austin,0.000468133484919,0.000707557788476,30.26694969,-97.74277836
Canada,Toronto,0.000575878493353,0.000634882139959,43.69997988,-79.42002079
United States of America,San Diego,0.000509002281222,0.000614262500228,32.82002382,-117.1799899
United States of America,Atlanta,0.00058330918359,0.000709633323254,33.83001385,-84.39994938
United States of America,San Jose,0.00051271762634,0.000533819561947,37.29998293,-121.8499891
United States of America,Phoenix,0.000427264688617,0.00048889221684,33.53997988,-112.0699917
United States of America,Arlington,0.000304658299709,0.000397776240108,32.68476076,-97.02023849
United States of America,Miami,0.000456987449564,0.000429300420248,25.7876107,-80.22410608
United States of America,Charlotte,0.000382680547196,0.000435255608494,35.20499453,-80.83003809
United States of America,Dallas,0.00051271762634,0.000513662926127,32.82002382,-96.84001693
United States of America,Las Vegas,0.000427264688617,0.000378537629286,35.59701194,-105.2225027
United States of America,Las Vegas,0.000427264688617,0.000378537629286,36.20999778,-115.2200061
United States of America,Oakland,0.000263789503407,0.000380788786237,37.76892071,-122.2211034
United States of America,Columbus,0.000323235025302,0.000455787437139,32.47043276,-84.98001734
United States of America,Columbus,0.000323235025302,0.000455787437139,39.97997438,-82.9900096
Singapore,Singapore,0.000130037079144,0.000238494911587,1.293033466,103.8558207
United States of America,Pittsburgh,0.000367819166722,0.000405136405742,40.4299986,-79.99998539
United States of America,Sacramento,0.00025635881317,0.000333139297441,38.57502138,-121.4700381
United States of America,Louisville,0.000341811750894,0.000338168477863,38.22501691,-85.74870427
United States of America,Salt Lake City,0.000274935538762,0.000347197054146,40.7750163,-111.9300519
United States of America,Boston,0.000356673131367,0.000536549688462,42.32996014,-71.07001367
United States of America,Madison,0.000356673131367,0.000359594383028,43.07301556,-89.40111699
United States of America,Tucson,0.000338096405775,0.000328253807888,32.20499676,-110.8899862
United States of America,Albuquerque,0.00034924244113,0.000322386430728,35.10497479,-106.6413308
United States of America,Richmond,0.000293512264354,0.000322338533772,39.82889833,-84.89028121
United States of America,Richmond,0.000293512264354,0.000322338533772,37.55001935,-77.449986
United States of America,San Antonio,0.000282366228999,0.000304496917512,29.48733319,-98.50730534
United States of America,Baltimore,0.000364103821604,0.000405575461176,39.29999005,-76.61998499
United States of America,Orlando,0.000330665715538,0.000296234692532,28.50997683,-81.38003036
United States of America,Rochester,0.000293512264354,0.000345081605238,44.02205324,-92.46968937
United States of America,Rochester,0.000293512264354,0.000345081605238,43.17042564,-77.61994979
Canada,Vancouver,0.000226636052223,0.000253047603508,49.27341658,-123.1216442
United States of America,Tampa,0.000219205361986,0.000274577285411,27.94698793,-82.45862085
United States of America,Indianapolis,0.000189482601039,0.000296617868183,39.74998842,-86.17004806
United States of America,Cleveland,0.000293512264354,0.000335590025044,41.4699868,-81.69499821
United States of America,Cincinnati,0.000222920707104,0.000288938389506,39.16188479,-84.45692265
United States of America,Springfield,0.000300942954591,0.000262475321093,44.05194806,-122.9780339
United States of America,Springfield,0.000300942954591,0.000262475321093,42.12002464,-72.57999903
United States of America,Springfield,0.000300942954591,0.000262475321093,39.92000388,-83.799986
United States of America,Springfield,0.000300942954591,0.000262475321093,39.82000999,-89.65001652
United States of America,Springfield,0.000300942954591,0.000262475321093,37.18001609,-93.31999923
Canada,Calgary,0.000323235025302,0.000236187874854,51.08299176,-114.0799982
United States of America,Raleigh,0.000196913291276,0.000278361144967,35.81878135,-78.64469344
United States of America,Columbia,0.000222920707104,0.000245799197439,35.61499534,-87.03526656
United States of America,Columbia,0.000222920707104,0.000245799197439,38.95207847,-92.33390955
United States of America,Columbia,0.000222920707104,0.000245799197439,34.0399752,-80.89998214
United States of America,Alexandria,0.000196913291276,0.000238918001369,38.82043276,-77.09998153
United States of America,Alexandria,0.000196913291276,0.000238918001369,31.31109784,-92.44501388
United States of America,Milwaukee,0.000189482601039,0.000280460628223,43.05265505,-87.91996708
United States of America,Kansas City,0.000211774671749,0.00027086527129,39.11358052,-94.63014638
United States of America,Kansas City,0.000211774671749,0.00027086527129,39.10708851,-94.60409422
United States of America,Jacksonville,0.000196913291276,0.000188027485189,34.75432436,-77.43055567
United States of America,Jacksonville,0.000196913291276,0.000188027485189,30.33002077,-81.66998682
United States of America,Honolulu,0.000159759840092,0.000173865951746,21.30687644,-157.8579979
United States of America,Nashville,0.000133752424263,0.000227598354005,36.16997438,-86.77998499
United States of America,Lexington,0.000170905875447,0.000186359074541,38.05001467,-84.50002079
United States of America,Fort Lauderdale,0.000167190530328,0.000201215113853,26.13606488,-80.14178552
United States of America,Omaha,0.000215490016868,0.0002191445412,41.24000083,-96.00999007
United States of America,Buffalo,0.00016347518521,0.00020067228168,42.87997825,-78.88000208
Canada,Ottawa,0.00018576725592,0.00019405451887,45.4166968,-75.7000153
United States of America,Wilmington,0.000148613804736,0.000174496595005,39.74626772,-75.54689803
United States of America,Wilmington,0.000148613804736,0.000174496595005,34.22551943,-77.94502039
United States of America,Colorado Springs,0.000126321734026,0.000166162524591,38.86296246,-104.7919863
United States of America,Durham,0.000148613804736,0.000196465332343,35.99995892,-78.91999964
United States of America,Long Beach,0.000159759840092,0.00017168664023,33.78696739,-118.1580439
Ireland,Dublin,0.000178336565684,0.000142381685737,53.33306114,-6.248905682
United States of America,Aurora,0.000118891043789,0.000165204585463,39.69585736,-104.808497
United States of America,Aurora,0.000118891043789,0.000165204585463,41.76539512,-88.29999557
United States of America,Irvine,0.000115175698671,0.000152615668755,33.68041058,-117.8299502
Canada,Edmonton,0.000170905875447,0.000161053515908,53.55002464,-113.4999819
United States of America,Eugene,0.000137467769381,0.000169235912627,44.05001019,-123.1000161
United States of America,Newark,0.00018576725592,0.00016222699134,40.70042137,-74.17000533
United States of America,Dayton,0.0001411831145,0.000170624924363,39.750376,-84.19998743
United States of America,Ann Arbor,0.000107745008434,0.000164206732205,42.30037539,-83.71999089
United States of America,Glendale,0.000130037079144,0.000142126235302,33.58194114,-112.1958238
New Zealand,Auckland,8.1737592605e-05,5.48739463867e-05,-36.850013,174.7649808
United States of America,Birmingham,0.000118891043789,0.000161971540906,33.53000633,-86.82499516
United States of America,Pasadena,0.000118891043789,0.000145614730294,29.66086265,-95.14774296
United States of America,Pasadena,0.000118891043789,0.000145614730294,34.16038129,-118.1388719
United States of America,Berkeley,0.000204343981512,0.000156886480701,37.87390139,-122.271152
United Kingdom,London,0.000222920707104,0.000291860103847,51.49999473,-0.116721844
United States of America,Vancouver,0.000174621220565,0.00015037249463,45.63030133,-122.6399925
United States of America,Virginia Beach,0.000126321734026,0.000151593867018,36.85321433,-75.97831873
United States of America,Knoxville,0.000100314318197,0.000127350024252,35.97001243,-83.92003036
Canada,Winnipeg,0.000115175698671,0.000125673630778,49.88298749,-97.16599186
United States of America,Spokane,0.000115175698671,0.00013589963097,47.66999595,-117.4199494
United States of America,New Orleans,9.65989730786e-05,0.000161013601778,29.99500246,-90.03996688
United States of America,Concord,0.000133752424263,0.000127142470774,43.20807192,-71.53804712
United States of America,Scottsdale,0.000167190530328,0.00014757052268,33.69234784,-111.8680402
United States of America,Tacoma,0.000100314318197,0.000121075522963,47.21131594,-122.5150131
United States of America,Grand Rapids,0.000122606388907,0.000142812758344,42.96371991,-85.66994938
United States of America,Riverside,0.000174621220565,0.00012000582427,33.94194501,-117.3980386
United States of America,Santa Barbara,0.000122606388907,0.000138039028356,34.43498985,-119.7199899
United States of America,Gainesville,8.1737592605e-05,0.000131804441197,29.65138002,-82.32503727
United States of America,Oklahoma City,0.000118891043789,0.000143730783342,35.47004295,-97.51868351
United States of America,Salem,0.000137467769381,0.000116708917104,42.5224989,-70.88309175
United States of America,Salem,0.000137467769381,0.000116708917104,44.92807029,-123.0238967
United States of America,Marietta,0.000148613804736,0.000119582734488,33.95561342,-84.54324813
United States of America,Fayetteville,0.000126321734026,0.000108039567995,36.06297833,-94.15720911
United States of America,Fayetteville,0.000126321734026,0.000108039567995,35.06293601,-78.88359359
United States of America,Decatur,0.000118891043789,0.000109021455601,39.8407064,-88.95473596
United States of America,Anchorage,0.000144898459618,0.000115463596238,61.21996991,-149.9002149
United States of America,Boise,0.000104029663315,0.000141695162695,43.60859011,-116.2274899
United States of America,Boulder,0.000107745008434,0.00012400522013,40.03844627,-105.246093
United States of America,Memphis,9.65989730786e-05,0.000117706770363,35.1199868,-89.99999516
United States of America,Lancaster,9.65989730786e-05,0.000107744203431,39.71921511,-82.6053044
United States of America,Lancaster,9.65989730786e-05,0.000107744203431,40.03777447,-76.30576644
United States of America,Lancaster,9.65989730786e-05,0.000107744203431,34.69804873,-118.135823
United States of America,Lincoln,9.28836279602e-05,0.000128858778379,40.81997479,-96.68000086
United States of America,Mesa,0.000130037079144,0.000114721193413,33.42391461,-111.7360844
United States of America,Santa Cruz,0.000144898459618,0.000133864010323,36.97194629,-122.0263904
United States of America,Charlottesville,0.000122606388907,0.000115750977976,38.02918907,-78.47692591
United States of America,Detroit,0.000104029663315,0.000128491568379,42.32996014,-83.08005579
United States of America,Albany,0.000148613804736,0.000149055328329,44.62049217,-123.086942
United States of America,Albany,0.000148613804736,0.000149055328329,31.57873008,-84.15582992
United States of America,Albany,0.000148613804736,0.000149055328329,42.67001691,-73.81994918
United States of America,Greensboro,0.000100314318197,0.000104407382134,36.07000633,-79.80002344
United States of America,Farmington,0.000107745008434,0.000104726695177,36.75415061,-108.1860944
United States of America,Bloomington,0.000104029663315,0.000109747892773,40.48459475,-88.99359664
United States of America,Bloomington,0.000104029663315,0.000109747892773,39.16565716,-86.52640873
United States of America,Jackson,7.43069023682e-05,0.000106570727999,35.61486615,-88.81389185
United States of America,Jackson,7.43069023682e-05,0.000106570727999,32.29881533,-90.18499679
United States of America,Reno,0.000152329149855,0.000117986169275,39.52997601,-119.8200096
United States of America,Greenville,8.91682828418e-05,0.000113707374503,33.41037539,-91.06168746
United States of America,Greenville,8.91682828418e-05,0.000113707374503,34.85292299,-82.3941545
United States of America,Greenville,8.91682828418e-05,0.000113707374503,35.61287661,-77.3666836
United States of America,Medford,0.000111460353552,0.000105101888002,42.32662701,-122.8744227
United States of America,Canton,7.43069023682e-05,0.000103233906702,40.79886497,-81.37863509
United States of America,Charleston,0.000107745008434,0.000119303335576,32.79237693,-79.99210474
United States of America,Charleston,0.000107745008434,0.000119303335576,38.34973798,-81.63272811
United States of America,Auburn,0.000100314318197,0.000100024810623,32.60970074,-85.48083948
United States of America,Olympia,7.43069023682e-05,0.000109739909947,47.03804486,-122.899434
Canada,Victoria,9.28836279602e-05,0.000109229009079,48.43328269,-123.3500009
United States of America,Bellingham,0.000104029663315,0.000110610037989,48.76013613,-122.4869269
United States of America,Burlington,7.80222474866e-05,0.000105477080827,40.80793418,-91.11276961
United States of America,Burlington,7.80222474866e-05,0.000105477080827,44.47579816,-73.21246688
United States of America,Santa Rosa,0.000156044494973,0.000119686511227,38.45040367,-122.6999889
United States of America,Fresno,0.000126321734026,9.26486793372e-05,36.7477169,-119.7729841
United States of America,Lafayette,7.43069023682e-05,9.94420643205e-05,40.41720868,-86.87824772
United States of America,Lafayette,7.43069023682e-05,9.94420643205e-05,30.19997703,-92.01994938
United States of America,Sarasota,9.28836279602e-05,9.63926247628e-05,27.33612083,-82.53078699
United States of America,Tallahassee,5.20148316577e-05,0.000113372095808,30.44998761,-84.28003422
United States of America,Athens,4.82994865393e-05,9.4396918246e-05,33.96129783,-83.3780221
United States of America,Des Moines,5.94455218945e-05,0.000107281199519,41.57998008,-93.61998092
United States of America,San Mateo,4.82994865393e-05,8.48334926173e-05,37.55691815,-122.3130616
United States of America,Naples,0.000137467769381,8.05068008888e-05,26.14205935,-81.79499211
United States of America,Syracuse,7.43069023682e-05,9.74782891079e-05,43.04999371,-76.15001367
United States of America,Watertown,7.43069023682e-05,8.98387245615e-05,43.97515688,-75.91106185
Canada,London,6.68762121313e-05,7.54856032925e-05,42.9699986,-81.24998661
United States of America,Akron,5.57301767761e-05,9.55544280257e-05,41.07039878,-81.51999597
Malaysia,Kuala Lumpur,5.57301767761e-05,5.2415235958e-05,3.166665872,101.6999833
United States of America,Asheville,5.94455218945e-05,7.87266306758e-05,35.60119773,-82.55414474
United States of America,Manchester,2.97227609473e-05,8.10576158875e-05,42.99599184,-71.45528731
Japan,Tokyo,1.8576725592e-05,2.69101066729e-05,35.68501691,139.7514074
United States of America,Belleville,5.94455218945e-05,8.62384700052e-05,38.52515362,-90.0002277
United Kingdom,Glasgow,6.68762121313e-05,7.26117859083e-05,55.87440472,-4.250707236
United States of America,Tulsa,7.80222474866e-05,0.000110178965381,36.12000327,-95.93002079
Canada,Kitchener,5.57301767761e-05,6.02863024603e-05,43.44999514,-80.50000655
United States of America,Peoria,0.000107745008434,9.15390665139e-05,40.69998212,-89.67004114
Spain,Granada,0.0,7.13744478678e-05,37.16497825,-3.585011435
United States of America,Trenton,8.91682828418e-05,9.99449823627e-05,40.2169625,-74.74335535
United States of America,Astoria,6.68762121313e-05,6.50440667965e-05,46.18838096,-123.8299974
United States of America,West Palm Beach,0.000100314318197,7.98522091513e-05,26.74501996,-80.12362126
United States of America,Duluth,8.1737592605e-05,9.52031836788e-05,46.78333173,-92.10637822
United States of America,Santa Fe,8.1737592605e-05,9.08365778199e-05,35.68692893,-105.9372394
Canada,Halifax,5.20148316577e-05,6.22021807165e-05,44.65002525,-63.60000452
United States of America,Wichita,6.31608670129e-05,8.63182982658e-05,37.71998313,-97.32998702
United States of America,El Paso,0.000100314318197,7.40486946004e-05,31.77998395,-106.5099952
United States of America,Baton Rouge,7.43069023682e-05,8.17361561032e-05,30.45794578,-91.14015812
United States of America,Lansing,7.43069023682e-05,9.21058471646e-05,42.73352724,-84.54673629
United States of America,Fort Wayne,2.22920707104e-05,6.05736841988e-05,41.08039817,-85.12998234
United States of America,Carlsbad,3.34381060657e-05,7.10870661294e-05,32.420565,-104.2282998
United States of America,Laurel,4.45841414209e-05,6.67763400531e-05,31.69737917,-89.1392725
United States of America,Dover,5.57301767761e-05,5.8234716161e-05,39.15808657,-75.524703
United States of America,Everett,7.43069023682e-05,7.25159919955e-05,47.9604175,-122.1999677
United States of America,Roanoke,5.94455218945e-05,5.61432157314e-05,37.27119916,-79.94161686
Indonesia,Jakarta,2.60074158289e-05,4.93977277045e-05,-6.174417705,106.8294376
United States of America,Monroe,4.82994865393e-05,5.95438996361e-05,32.50960349,-92.11919397
United States of America,Fort Collins,5.94455218945e-05,7.45276641644e-05,40.56068829,-105.0588693
United States of America,Providence,7.80222474866e-05,8.9655119562e-05,41.82110231,-71.4149797
United States of America,Worcester,8.1737592605e-05,7.85669741545e-05,42.27042889,-71.80002079
United States of America,Evanston,3.71534511841e-05,8.25583871881e-05,42.04834943,-87.69995467
United States of America,Dublin,5.20148316577e-05,6.76544509205e-05,32.53745709,-82.91828272
United Kingdom,Manchester,8.1737592605e-05,6.2968532019e-05,53.50041526,-2.247987103
United States of America,Rockford,5.94455218945e-05,5.10421898744e-05,42.26970542,-89.06969019
United States of America,Stockton,0.000107745008434,6.21782322383e-05,37.95813397,-121.289739
United States of America,Roswell,5.20148316577e-05,5.27584974789e-05,33.39453656,-104.5224679
United States of America,Oceanside,6.31608670129e-05,5.98711955048e-05,33.2204645,-117.3349675
United States of America,Stamford,8.54529377234e-05,7.17735891712e-05,41.05334556,-73.53919112
United States of America,Ithaca,4.45841414209e-05,7.05841480872e-05,42.44057355,-76.4969434
United Kingdom,Birmingham,7.43069023682e-05,7.86707508934e-05,52.47497398,-1.919996787
United States of America,Marion,4.45841414209e-05,5.3604677042e-05,40.55833701,-85.65917485
United States of America,York,4.45841414209e-05,5.40916294321e-05,39.96292116,-76.72804041
United States of America,Norfolk,4.82994865393e-05,6.71435500522e-05,42.02871238,-97.43359827
United States of America,Norfolk,4.82994865393e-05,6.71435500522e-05,36.84995872,-76.28000574
United States of America,Florence,2.22920707104e-05,5.15051937863e-05,34.79969627,-87.67724288
United States of America,Florence,2.22920707104e-05,5.15051937863e-05,34.19567629,-79.76279057
United States of America,Bakersfield,2.97227609473e-05,6.28248411497e-05,35.36997154,-119.0199809
United States of America,Bend,6.31608670129e-05,6.94426039595e-05,44.071921,-121.3099962
United States of America,Cape Coral,7.80222474866e-05,5.36765224766e-05,26.60290977,-81.97968368
South Korea,Seoul,3.71534511841e-06,2.40522549408e-05,37.5663491,126.999731
United States of America,Missoula,6.31608670129e-05,7.04803713483e-05,46.87224103,-113.9930526
United States of America,Fredericksburg,4.45841414209e-05,4.93817620524e-05,38.30351341,-77.46078638
Thailand,Bangkok,7.43069023682e-06,3.94591092507e-05,13.74999921,100.5166447
Australia,Melbourne,1.11460353552e-05,5.74763476846e-06,-37.82003131,144.9750162
Canada,Saskatoon,4.45841414209e-05,4.52626238017e-05,52.17003135,-106.6699854
Canada,Hamilton,6.31608670129e-05,5.41315435624e-05,43.24998151,-79.82999577
United States of America,Schenectady,3.71534511841e-05,4.75137807526e-05,42.81458173,-73.93996769
United States of America,Little Rock,8.1737592605e-05,7.78724682866e-05,34.73608258,-92.33109318
United States of America,San Marcos,7.80222474866e-05,5.84183211606e-05,29.88307131,-97.94111251
United States of America,Kalamazoo,2.60074158289e-05,5.09623616137e-05,42.29215883,-85.58718958
United States of America,Brunswick,4.08687963025e-05,4.52386753235e-05,31.1496865,-81.49165145
Jamaica,Kingston,2.60074158289e-05,4.35303505451e-05,17.97707662,-76.76743371
United States of America,Huntsville,5.20148316577e-05,5.62549752963e-05,30.72376935,-95.55058659
United States of America,Huntsville,5.20148316577e-05,5.62549752963e-05,34.71995953,-86.60999536
United States of America,Bristol,3.71534511841e-05,4.95254529216e-05,36.61152366,-82.17600244
Australia,Sydney,0.0,4.86154107499e-06,-33.92001097,151.1851798
Chile,Santiago,4.08687963025e-05,4.87511187931e-05,-33.45001382,-70.66704085
United States of America,Toledo,4.08687963025e-05,6.44214063632e-05,41.67002626,-83.57997359
United States of America,New Haven,5.20148316577e-05,7.14383104764e-05,41.33038291,-72.90000533
United States of America,Danville,1.8576725592e-05,4.65318931464e-05,36.58625388,-79.39531946
United States of America,Harrisburg,5.20148316577e-05,6.20185757169e-05,40.27359987,-76.88474919
United States of America,Leesburg,4.82994865393e-05,3.77827157766e-05,28.81050112,-81.88333297
United States of America,Cedar Rapids,7.43069023682e-05,6.52117061439e-05,41.96998212,-91.66002303
United States of America,Lawrence,4.82994865393e-05,6.18190050653e-05,38.95975242,-95.25522994
United States of America,Winchester,3.71534511841e-05,4.18459742448e-05,39.1787313,-78.16663477
United States of America,Erie,3.34381060657e-05,5.13854513953e-05,42.12992067,-80.08499313
United States of America,Allentown,4.82994865393e-05,4.91502600964e-05,40.59998822,-75.50002751
United States of America,Clarksville,4.08687963025e-05,3.56433183905e-05,36.5300816,-87.35943282
United States of America,Chattanooga,6.31608670129e-05,5.85061322473e-05,35.06998985,-85.25000086
France,Paris,5.94455218945e-05,0.00010015253584,48.86669293,2.333335326
Australia,Brisbane,0.0,6.21063868037e-06,-27.45503091,153.0350927
United States of America,Newport,3.34381060657e-05,5.22475966106e-05,41.49039899,-71.31335799
United States of America,Chico,4.82994865393e-05,5.65982368172e-05,39.72862022,-121.8363982
United States of America,Sioux Falls,5.57301767761e-05,4.87112046627e-05,43.54998903,-96.7299978
United States of America,Augusta,4.08687963025e-05,5.46504272568e-05,33.46081158,-81.98498051
United States of America,Augusta,4.08687963025e-05,5.46504272568e-05,44.31056276,-69.77998906
Germany,Berlin,7.43069023682e-05,8.20235378416e-05,52.52181866,13.40154862
United States of America,Davenport,3.34381060657e-05,3.82058055582e-05,41.55398684,-90.58753036
United States of America,Sanford,3.71534511841e-05,3.72478664301e-05,28.78995974,-81.27998478
United States of America,Denton,4.08687963025e-05,4.85754966196e-05,33.21576194,-97.12883651
United States of America,Murfreesboro,3.71534511841e-05,4.34345566322e-05,35.84596315,-86.39026717
United States of America,Eureka,4.45841414209e-05,5.90489644199e-05,40.80222394,-124.1474974
United States of America,Covington,2.97227609473e-05,3.77827157766e-05,39.0840084,-84.50859908
United States of America,Savannah,3.71534511841e-05,5.3963904215e-05,32.02110618,-81.10999516
United States of America,Iowa City,5.20148316577e-05,5.95917965925e-05,41.66108624,-91.52997929
United States of America,Pensacola,5.94455218945e-05,4.53664005405e-05,30.42112632,-87.21693506
United States of America,Lynchburg,2.97227609473e-05,4.06645159869e-05,37.4136194,-79.14246668
United States of America,Corvallis,1.8576725592e-05,4.81603896641e-05,44.57235557,-123.2799793
United States of America,Annapolis,6.31608670129e-05,5.09064818312e-05,38.9783301,-76.49249923
Canada,Regina,5.57301767761e-05,4.08800522907e-05,50.45003298,-104.6170099
United States of America,Appleton,4.08687963025e-05,4.27879477208e-05,44.26867902,-88.40050623
United States of America,Mansfield,3.71534511841e-05,4.08640866386e-05,40.75832481,-82.51554244
United States of America,Hartford,2.60074158289e-05,5.83145444217e-05,41.77002016,-72.67996708
United States of America,Midland,5.94455218945e-05,4.0440996857e-05,32.030718,-102.0974996
United States of America,Melbourne,3.71534511841e-05,4.47996198898e-05,28.08331036,-80.60832035
United States of America,Whittier,4.82994865393e-05,4.26682053298e-05,60.78415672,-148.6776797
United States of America,Traverse City,2.60074158289e-05,3.90998820777e-05,44.76844179,-85.62217452
United States of America,State College,4.08687963025e-05,4.87112046627e-05,40.79372316,-77.8602452
United States of America,Hampton,2.60074158289e-05,3.66731029532e-05,37.03002525,-76.34994979
United States of America,Bozeman,5.57301767761e-05,4.52945551059e-05,45.68009157,-111.0378325
Taiwan,Taipei,1.48613804736e-05,2.27111401615e-05,25.03583333,121.5683333
Netherlands,Amsterdam,0.000100314318197,7.62280061168e-05,52.34996869,4.916640176
United Kingdom,Liverpool,4.82994865393e-05,4.4823568368e-05,53.41600181,-2.917997886
United States of America,Montgomery,3.34381060657e-05,5.00682850942e-05,32.36160219,-86.27918868
Barbados,Bridgetown,2.22920707104e-05,2.59042705884e-05,13.10200258,-59.61652674
United States of America,Modesto,4.82994865393e-05,4.05527564219e-05,37.65541343,-120.9899899
United Kingdom,Edinburgh,3.34381060657e-05,4.8503651185e-05,55.94832786,-3.219090618
United States of America,Utica,1.8576725592e-05,3.24661536158e-05,43.10117922,-75.23306706
United States of America,Topeka,2.60074158289e-05,4.50071733675e-05,39.05000531,-95.66998499
Norway,Oslo,0.000100314318197,6.97858654804e-05,59.91669029,10.74997921
New Zealand,Wellington,3.34381060657e-05,1.4353121269e-05,-41.29997394,174.7832743
United States of America,Spring Hill,1.48613804736e-05,3.04864127511e-05,28.47894513,-82.54771102
Spain,Madrid,4.08687963025e-05,5.05312890061e-05,40.40002626,-3.683351686
United States of America,Quincy,3.71534511841e-05,3.54916446953e-05,39.9359719,-91.40972823
United Kingdom,Belfast,3.34381060657e-05,3.17476992697e-05,54.60001223,-5.960034425
United States of America,Jonesboro,2.60074158289e-05,2.97998897093e-05,35.84257835,-90.70416406
Australia,Perth,3.71534511841e-06,9.9146699756e-06,-31.95501463,115.8399987
United States of America,Johnson City,3.71534511841e-05,3.39270107861e-05,36.31332481,-82.35361434
United States of America,Youngstown,3.34381060657e-05,2.83549981911e-05,41.09969932,-80.64973902
United States of America,Meridian,5.57301767761e-05,3.82696681667e-05,32.36418601,-88.70361434
United States of America,Norman,4.45841414209e-05,3.8309582297e-05,35.22791302,-97.34414636
United States of America,San Luis Obispo,4.82994865393e-05,3.45177399151e-05,35.28318097,-120.6585889
United Kingdom,Bristol,3.34381060657e-05,5.60713702968e-05,51.44999778,-2.583315472
United States of America,Miami Beach,2.97227609473e-05,3.5938682955e-05,25.80991953,-80.13178111
United States of America,Mobile,5.20148316577e-05,3.79104409937e-05,30.68002525,-88.04998499
United States of America,Fargo,2.97227609473e-05,4.59491468434e-05,46.8772278,-96.7894257
United States of America,Myrtle Beach,4.08687963025e-05,2.93767999277e-05,33.68891136,-78.8869784
United States of America,Billings,3.34381060657e-05,3.50046923052e-05,45.78830202,-108.5400004
United States of America,Monterey,4.82994865393e-05,3.64495838233e-05,36.6002582,-121.8935781
New Zealand,Christchurch,2.22920707104e-05,1.32674569239e-05,-43.53503131,172.6300207
United States of America,Lubbock,7.43069023682e-05,3.95469203375e-05,33.58000327,-101.8799677
United States of America,Palm Springs,6.68762121313e-05,4.63163568425e-05,33.77735557,-116.5330526
United States of America,Huntington,3.71534511841e-05,3.38391996993e-05,38.41957867,-82.44528833
Sweden,Stockholm,8.54529377234e-05,5.60713702968e-05,59.35075995,18.09733473
United States of America,Independence,4.82994865393e-05,3.25699303546e-05,39.09111391,-94.41528121
United States of America,Salisbury,2.22920707104e-05,2.99755118828e-05,35.67078005,-80.4744784
United States of America,Green Bay,2.60074158289e-05,3.78465783851e-05,44.5299809,-88.00001388
Canada,Windsor,4.82994865393e-05,3.13725064445e-05,44.98059938,-64.12911951
Canada,Windsor,4.82994865393e-05,3.13725064445e-05,42.33329327,-83.03334029
Canada,Kingston,2.60074158289e-05,2.73491621066e-05,44.23371991,-76.48330082
Canada,Barrie,4.08687963025e-05,2.99515634046e-05,44.38376243,-79.7000037
Peru,Lima,1.8576725592e-05,3.21867547034e-05,-12.04801268,-77.05006209
Greece,Athens,4.45841414209e-05,5.41634748667e-05,37.98332623,23.73332108
United States of America,Redding,2.22920707104e-05,3.45177399151e-05,40.58704327,-122.3905762
United States of America,Kissimmee,3.34381060657e-05,3.23623768769e-05,28.29205731,-81.4077806
United States of America,Ocala,2.97227609473e-05,3.14922488355e-05,29.1873515,-82.14026819
United States of America,Evansville,3.71534511841e-05,3.59227173029e-05,37.97469627,-87.5558291
United States of America,Corpus Christi,1.8576725592e-05,3.35837492652e-05,27.74281435,-97.40189478
United Kingdom,Leeds,3.71534511841e-05,4.53424520623e-05,53.83000755,-1.580017539
United States of America,Helena,1.48613804736e-05,4.01775635968e-05,46.59274904,-112.035291
Portugal,Porto,0.0,1.88953493013e-05,41.15000633,-8.620001263
Canada,Kelowna,3.34381060657e-05,3.47811731753e-05,49.89998903,-119.4833118
Philippines,Quezon City,7.43069023682e-06,2.24397240752e-05,14.6504352,121.0299662
United States of America,Vallejo,2.60074158289e-05,3.49168812184e-05,38.11194887,-122.258052
United States of America,Eau Claire,1.11460353552e-05,3.14044377488e-05,44.81135907,-91.49835331
United States of America,Anderson,1.8576725592e-05,2.40841862451e-05,34.50374534,-82.6502629
United States of America,Salinas,3.71534511841e-05,3.13804892706e-05,36.68221702,-121.6416555
United States of America,Hagerstown,7.43069023682e-06,1.84163797373e-05,39.64164878,-77.72027958
United States of America,Metairie,2.22920707104e-05,3.47173105667e-05,29.98386619,-90.15277653
United States of America,Kalispell,4.08687963025e-05,3.19153386171e-05,48.19776735,-114.3159786
United States of America,Macon,2.60074158289e-05,2.61916523269e-05,32.85038373,-83.63004806
United States of America,Bremerton,1.8576725592e-05,3.39589420903e-05,47.57359552,-122.6420175
United States of America,Bowling Green,2.60074158289e-05,3.20270981821e-05,41.37474713,-83.65139042
United States of America,Bowling Green,2.60074158289e-05,3.20270981821e-05,36.99069948,-86.44364893
United States of America,Garden City,1.11460353552e-05,2.75567155844e-05,37.97521303,-100.8640866
Puerto Rico,San Juan,5.94455218945e-05,2.86902768859e-05,18.44002301,-66.12997929
United States of America,Ogden,2.97227609473e-05,3.10052964454e-05,41.23237856,-111.9680341
United States of America,Vero Beach,2.60074158289e-05,2.70458147161e-05,27.64225201,-80.39112431
United States of America,Juneau,2.60074158289e-05,3.40148218728e-05,58.31412661,-134.419997
United States of America,Lowell,3.71534511841e-05,3.51643488265e-05,42.63368837,-71.31669112
United States of America,Morgantown,1.48613804736e-05,3.29610888319e-05,39.62981488,-79.95606043
United States of America,Clovis,4.08687963025e-05,2.65748279781e-05,34.40506919,-103.2047706
United States of America,Lakeville,1.11460353552e-05,2.31182642909e-05,44.65010276,-93.24251042
Portugal,Lisbon,3.71534511841e-05,3.61622020849e-05,38.72272288,-9.144866305
United Kingdom,Nottingham,2.22920707104e-05,4.11754168552e-05,52.97034426,-1.170016725
United States of America,Poughkeepsie,3.71534511841e-05,2.60719099358e-05,41.70023114,-73.92141585
United States of America,Ontario,3.71534511841e-05,2.31182642909e-05,44.02662661,-116.9618895
United States of America,Racine,3.34381060657e-05,2.67584329776e-05,42.72771364,-87.81183415
United States of America,Elgin,2.97227609473e-05,2.91293323196e-05,42.03946108,-88.28991866
United States of America,Richland,2.22920707104e-05,2.29107108132e-05,46.29181134,-119.2911013
Canada,Moncton,2.22920707104e-05,2.1936806033e-05,46.08334861,-64.76667749
United States of America,Saginaw,1.48613804736e-05,2.33896803772e-05,43.4194802,-83.95082951
United States of America,Conway,1.8576725592e-05,2.72533681938e-05,35.09128054,-92.4513184
United States of America,South Bend,1.11460353552e-05,2.73810934109e-05,41.68330711,-86.25001734
United Kingdom,Sheffield,2.97227609473e-05,3.11809186189e-05,53.36667666,-1.499996583
United States of America,Ambler,1.48613804736e-05,2.5026159721e-05,67.08648521,-157.8514091
United States of America,Saratoga Springs,2.60074158289e-05,2.15775788599e-05,43.08296328,-73.78501591
United States of America,La Crosse,1.8576725592e-05,2.84507921039e-05,43.80136904,-91.23942855
United States of America,New Albany,1.48613804736e-05,2.00847903854e-05,38.3108773,-85.82128382
United States of America,Lewiston,1.11460353552e-05,1.9805391473e-05,44.10070477,-70.21525965
United States of America,Lewiston,1.11460353552e-05,1.9805391473e-05,46.41660992,-117.016589
Vietnam,Ho Chi Minh City,1.8576725592e-05,1.60614460474e-05,10.78002545,106.6950272
United States of America,Shawnee,1.11460353552e-05,2.87381738423e-05,35.34278973,-96.93378382
United States of America,Muskegon,1.8576725592e-05,1.94222158218e-05,43.23458193,-86.24836369
United States of America,Palm Coast,4.82994865393e-05,2.3716976246e-05,29.53800193,-81.22329574
Dominican Republic,Santo Domingo,1.8576725592e-05,2.18330292941e-05,18.47007285,-69.90008508
United States of America,Waukesha,3.34381060657e-05,3.23943081812e-05,43.0116498,-88.23136926
Turkey,Istanbul,1.8576725592e-05,5.36845053027e-05,41.10499615,29.01000159
Spain,Barcelona,5.20148316577e-05,4.10556744642e-05,41.38329958,2.183370319
United States of America,Janesville,1.11460353552e-05,1.97335460384e-05,42.68262596,-89.02157943
United States of America,Bridgeport,4.45841414209e-05,2.32539723341e-05,41.17997866,-73.19996118
United States of America,Great Falls,3.34381060657e-05,2.02204984285e-05,47.50029055,-111.299987
Canada,Fredericton,7.43069023682e-06,2.37010105938e-05,45.94999758,-66.63330774
United States of America,Urbana,3.71534511841e-05,3.60424596939e-05,40.10999229,-88.20418746
United States of America,Spartanburg,2.60074158289e-05,2.32938864644e-05,34.94942873,-81.93227055
United States of America,Amarillo,3.34381060657e-05,2.41320832015e-05,35.22998008,-101.8299966
United States of America,Freeport,2.22920707104e-05,1.96217864735e-05,28.95948427,-95.35687748
United States of America,Bangor,1.11460353552e-05,2.36371479853e-05,44.80115297,-68.77834477
United States of America,Powell,2.97227609473e-05,1.95499410388e-05,44.75867495,-108.7584367
United States of America,Aberdeen,3.34381060657e-05,1.82247919117e-05,46.97489626,-123.8143911
United States of America,Aberdeen,3.34381060657e-05,1.82247919117e-05,45.46511761,-98.48640222
United States of America,Visalia,2.60074158289e-05,2.21683079889e-05,36.32502952,-119.3160094
United States of America,Blacksburg,2.22920707104e-05,2.43316538532e-05,37.22941876,-80.41419784
United States of America,Shreveport,1.8576725592e-05,2.62395492833e-05,32.50001752,-93.77002344
United States of America,Grand Junction,1.48613804736e-05,2.67743986298e-05,39.09385276,-108.5499998
United States of America,Stillwater,1.11460353552e-05,2.63752573264e-05,36.13535118,-97.06829757
United States of America,Mankato,3.71534511841e-06,2.40442721147e-05,44.16362083,-93.99915674
United States of America,Harrisonburg,1.11460353552e-05,2.10347466874e-05,38.44942181,-78.86917586
United States of America,Santa Maria,4.08687963025e-05,3.16199740526e-05,34.94012697,-120.4366386
Austria,Vienna,3.71534511841e-05,4.3410608154e-05,48.20001528,16.36663896
Canada,Nanaimo,3.71534511841e-05,2.56328545021e-05,49.14602021,-123.9342911
United States of America,Johnstown,2.60074158289e-05,2.38766327673e-05,40.32708498,-78.92222172
United States of America,La Grange,3.34381060657e-05,2.15695960339e-05,33.03647056,-85.03187464
United States of America,Tuscaloosa,1.48613804736e-05,2.03881377759e-05,33.22511538,-87.54417607
United States of America,Yakima,2.22920707104e-05,2.48186062433e-05,46.60223167,-120.5046965
United States of America,Binghamton,3.71534511841e-05,3.25619475286e-05,42.09901817,-75.91832239
United States of America,Flagstaff,2.60074158289e-05,2.55210949372e-05,35.19809572,-111.6505083
United States of America,Durango,1.48613804736e-05,2.32859036383e-05,37.27564333,-107.8799891
United States of America,Bay City,2.60074158289e-05,2.1346076904e-05,43.5944566,-83.88889531
United States of America,Bay City,2.60074158289e-05,2.1346076904e-05,28.98111086,-95.96435978
United States of America,Killeen,7.43069023682e-06,1.81529464771e-05,31.11728538,-97.72748214
United States of America,Kennewick,2.22920707104e-05,2.11385234262e-05,46.21137697,-119.1360979
United States of America,Rock Hill,1.48613804736e-05,1.91667653876e-05,34.94038535,-81.03000004
United States of America,Jamestown,1.8576725592e-05,1.85121736501e-05,46.90601158,-98.70297815
United States of America,Jamestown,1.8576725592e-05,1.85121736501e-05,42.09736452,-79.23553593
United States of America,Pueblo,2.60074158289e-05,1.40817051827e-05,38.2803882,-104.6300066
United States of America,Cheyenne,2.60074158289e-05,2.80037538441e-05,41.14000694,-104.8197107
Belgium,Brussels,6.31608670129e-05,4.87191874888e-05,50.83331708,4.333316608
United States of America,Scranton,1.11460353552e-05,2.40602377669e-05,41.40929283,-75.66267908
United Kingdom,Leicester,1.8576725592e-05,2.67025531952e-05,52.62997744,-1.133248943
United States of America,Beaumont,2.60074158289e-05,1.96617006038e-05,30.08626304,-94.10168278
Australia,Adelaide,0.0,3.24102738333e-06,-34.93498777,138.6000048
United States of America,Panama City,1.48613804736e-05,1.88394695189e-05,30.15861005,-85.65527328
United States of America,Wheeling,2.60074158289e-05,2.31741440734e-05,40.06431032,-80.72107833
United States of America,Provo,1.11460353552e-05,2.43396366792e-05,40.24889854,-111.63777
United States of America,Frankfort,0.0,3.32484705704e-05,38.2008065,-84.87335718
United States of America,Longview,7.43069023682e-06,2.25754321184e-05,32.50053428,-94.74027429
United States of America,Longview,7.43069023682e-06,2.25754321184e-05,46.13871991,-122.9369511
United States of America,Carbondale,2.97227609473e-05,3.08456399241e-05,37.72683026,-89.22024947
United States of America,Las Cruces,1.8576725592e-05,2.51299364599e-05,32.31261293,-106.7778083
United States of America,Montpelier,1.48613804736e-05,2.21283938586e-05,44.25997154,-72.57581323
United States of America,Montpelier,1.48613804736e-05,2.21283938586e-05,42.32262209,-111.2969123
United Kingdom,Cardiff,3.71534511841e-05,2.4666932548e-05,51.49999473,-3.22500757
Argentina,Buenos Aires,1.8576725592e-05,2.71974884113e-05,-34.60250161,-58.39753137
Canada,Sudbury,1.48613804736e-05,1.35947527926e-05,46.49998985,-80.96664474
United States of America,Waterbury,7.43069023682e-06,2.37968045067e-05,41.55000775,-73.05002202
United States of America,Council Bluffs,1.8576725592e-05,2.561688885e-05,41.26227338,-95.86080021
Bermuda,Hamilton,7.43069023682e-06,1.80811010425e-05,32.29419029,-64.78393742
Philippines,Manila,1.48613804736e-05,1.3522907358e-05,14.60415895,120.9822172
Italy,Rome,2.22920707104e-05,3.09095025326e-05,41.89595563,12.48325842
United States of America,Rapid City,2.22920707104e-05,2.01486529939e-05,44.08055096,-103.2305571
United States of America,Waterloo,7.43069023682e-06,1.78017021301e-05,42.49315432,-92.34279789
United States of America,New Braunfels,1.48613804736e-05,1.75702001742e-05,29.6978113,-98.12632084
United Kingdom,Oxford,2.97227609473e-05,2.56009231979e-05,51.7704175,-1.249986004
Egypt,Cairo,1.11460353552e-05,2.90415212329e-05,30.04996035,31.24996822
Canada,Peterborough,2.22920707104e-05,1.31397317068e-05,44.29996909,-78.33326542
United Kingdom,Cambridge,3.34381060657e-05,2.94326797102e-05,52.20039125,0.116623086
United States of America,Tyler,7.43069023682e-06,2.16813555988e-05,32.35108604,-95.30078272
United States of America,Homestead,1.48613804736e-05,1.46644514857e-05,25.46830202,-80.47778569
United States of America,Cumberland,7.43069023682e-06,1.84722595198e-05,39.65317263,-78.76277409
Ireland,Cork,2.97227609473e-05,1.7546251696e-05,51.89860089,-8.49577112
United States of America,Hilo,3.34381060657e-05,3.18355103564e-05,19.69999778,-155.0900273
United States of America,Pittsfield,7.43069023682e-06,1.74504577831e-05,42.44819582,-73.25982833
United States of America,Coral Gables,4.08687963025e-05,3.16838366612e-05,25.71541872,-80.29107874
Germany,Munich,1.48613804736e-05,3.37593714387e-05,48.12994204,11.57499345
United States of America,Wasilla,1.11460353552e-05,2.19687373372e-05,61.58173077,-149.439442
United States of America,Ames,1.8576725592e-05,2.7277316672e-05,42.05385297,-93.61972254
Romania,Bucharest,2.97227609473e-05,3.77348188202e-05,44.4333718,26.09994665
Finland,Helsinki,5.20148316577e-05,4.94057105306e-05,60.17556337,24.93412634
United States of America,Manhattan,2.60074158289e-05,1.96138036474e-05,39.19402753,-96.59243514
United Kingdom,Aberdeen,2.22920707104e-05,1.87277099539e-05,57.17039797,-2.079987021
United States of America,New London,1.11460353552e-05,1.76500284348e-05,41.3555235,-72.10002832
China,Beijing,1.11460353552e-05,6.63372846194e-06,39.92889223,116.3882857
Canada,Thunder Bay,1.8576725592e-05,1.88953493013e-05,48.44615013,-89.27497481
United Kingdom,Southampton,2.60074158289e-05,2.95843534055e-05,50.90003135,-1.399976849
United States of America,Conroe,2.22920707104e-05,1.65244499593e-05,30.31206321,-95.45586369
United States of America,Altoona,7.43069023682e-06,1.73307153921e-05,40.51859784,-78.39496708
United States of America,Jefferson City,1.8576725592e-05,1.57022188744e-05,38.57662335,-92.17332503
United States of America,Caldwell,1.48613804736e-05,1.65563812636e-05,43.66096417,-116.6705378
United States of America,Bismarck,7.43069023682e-06,2.19288232069e-05,46.80831728,-100.7833163
Serbia,Belgrade,1.48613804736e-05,2.10826436438e-05,44.81864545,20.46799068
United States of America,Oshkosh,1.8576725592e-05,2.17691666856e-05,44.02510215,-88.54251306
United States of America,Muncie,2.22920707104e-05,1.78735475647e-05,40.19375979,-85.38637496
United States of America,Logan,2.22920707104e-05,1.63328621337e-05,41.73593955,-111.8335979
United States of America,Aiken,2.22920707104e-05,1.51354382236e-05,33.5494625,-81.72060388
United Kingdom,Brighton,2.97227609473e-05,2.91053838414e-05,50.83034568,-0.169974407
United States of America,San Bernardino,3.71534511841e-06,1.74504577831e-05,34.12038373,-117.3000342
United States of America,Prescott,1.11460353552e-05,2.29186936393e-05,34.59001914,-112.4477723
United States of America,Battle Creek,1.48613804736e-05,1.3754409314e-05,42.32109764,-85.17974675
Canada,Red Deer,1.11460353552e-05,1.68038488717e-05,52.26664044,-113.8000411
Canada,Lethbridge,1.11460353552e-05,1.76420456088e-05,49.70049217,-112.8332784
Canada,Abbotsford,2.97227609473e-05,1.79374101732e-05,49.05037681,-122.2999874
United States of America,Grants Pass,2.97227609473e-05,2.34455601597e-05,42.43954002,-123.3271857
United States of America,Odessa,2.22920707104e-05,1.6484535829e-05,31.84556134,-102.3672248
United States of America,New Bedford,2.22920707104e-05,1.47522625724e-05,41.6561253,-70.94469833
United States of America,Kingsport,3.71534511841e-05,1.70034195234e-05,36.54832338,-82.56194788
United States of America,Sioux City,1.11460353552e-05,1.75302860438e-05,42.50038902,-96.39999211
United States of America,Riverton,3.71534511841e-06,1.51673695279e-05,43.02816042,-108.3950481
United States of America,Carson City,1.11460353552e-05,1.55904593095e-05,39.16384849,-119.7663953
Canada,Kamloops,2.22920707104e-05,1.83525171287e-05,50.66666058,-120.3332858
United States of America,Waco,1.11460353552e-05,1.8855435171e-05,31.54917116,-97.14638066
United States of America,Wenatchee,3.71534511841e-05,2.1234317339e-05,47.42362856,-120.3090237
Croatia,Zagreb,1.8576725592e-05,2.70617803682e-05,45.80000673,15.99999467
Nigeria,Lagos,4.08687963025e-05,2.30224703781e-05,6.443261653,3.391531071
United States of America,Sheboygan,7.43069023682e-06,1.61572399602e-05,43.75082949,-87.71442407
Canada,Saint John,2.22920707104e-05,1.20460845356e-05,45.26704185,-66.07667505
United Arab Emirates,Dubai,0.000144898459618,9.76139971511e-05,25.22999615,55.27997432
United States of America,Greeley,2.60074158289e-05,2.206453125e-05,40.41919822,-104.739974
Russia,Moscow,1.8576725592e-05,2.3477491464e-05,55.75216412,37.61552283
United States of America,Yuba City,1.11460353552e-05,2.11624719044e-05,39.14103334,-121.6157656
United States of America,Fairbanks,0.0,1.37065123576e-05,64.83698427,-147.7106586
New Zealand,Hamilton,1.11460353552e-05,6.9849728089e-06,-37.77000853,175.3000386
United States of America,Key West,2.60074158289e-05,1.89592119099e-05,24.55523114,-81.78274479
United States of America,Lima,1.48613804736e-05,1.34350962713e-05,40.74287355,-84.10526453
United States of America,Merced,1.48613804736e-05,1.69475397409e-05,37.30261843,-120.481933
United States of America,Rocky Mount,3.71534511841e-06,1.53270260492e-05,35.93799888,-77.79076624
Hungary,Budapest,2.22920707104e-05,3.36236633955e-05,47.50000633,19.08332068
United States of America,Hickory,2.60074158289e-05,1.29002469248e-05,35.7334894,-81.34140222
United States of America,Wausau,1.48613804736e-05,1.44888293122e-05,44.95915367,-89.6299919
Philippines,Cebu,1.11460353552e-05,9.74703062819e-06,10.31997601,123.9000752
United States of America,Marquette,1.11460353552e-05,1.54786997445e-05,46.54673118,-87.40658757
United States of America,Dubuque,1.48613804736e-05,1.60614460474e-05,42.50093162,-90.66445073
United States of America,Paso Robles,2.97227609473e-05,2.04440175584e-05,35.6265967,-120.6899823
United States of America,Ardmore,1.8576725592e-05,1.46085717032e-05,34.1810777,-97.12940495
United States of America,Cordova,1.11460353552e-05,1.42812758344e-05,60.5427761,-145.7574962
United Kingdom,Coventry,7.43069023682e-06,1.9925133864e-05,52.42040367,-1.499996583
Cayman Islands,George Town,3.34381060657e-05,1.6955522567e-05,19.28043683,-81.32998173
United Kingdom,Reading,1.11460353552e-05,2.07234164707e-05,51.46997072,-0.980028322
United States of America,Clarksburg,3.71534511841e-06,1.21578441005e-05,39.28327272,-80.33691573
Germany,Hamburg,2.60074158289e-05,3.16998023133e-05,53.55002464,9.999999144
Vietnam,Hanoi,7.43069023682e-06,1.53749230056e-05,21.03332725,105.8500142
China,Shanghai,3.71534511841e-06,3.68008281703e-06,31.21645245,121.4365047
United States of America,Grand Island,3.71534511841e-06,1.06890041041e-05,40.92226829,-98.35798629
United States of America,Titusville,1.8576725592e-05,1.21099471441e-05,28.61234784,-80.80779138
United States of America,Terre Haute,1.11460353552e-05,1.50236786587e-05,39.46664654,-87.41387394
Thailand,Chiang Mai,7.43069023682e-06,5.88334281161e-06,18.7999752,98.98004594
United States of America,Hattiesburg,1.11460353552e-05,1.4584623225e-05,31.32727256,-89.2902452
United States of America,Port Charlotte,1.48613804736e-05,1.3043937794e-05,27.00004315,-82.10569666
United States of America,Montrose,1.11460353552e-05,1.56064249616e-05,38.47727541,-107.8655197
United States of America,Laramie,0.0,1.58538925697e-05,41.31136599,-105.5905681
United States of America,Oak Ridge,1.11460353552e-05,1.47522625724e-05,36.01065594,-84.26972477
Poland,Warsaw,1.48613804736e-05,2.89137960158e-05,52.25000063,20.99999955
United Kingdom,Bradford,1.48613804736e-05,1.57900299611e-05,53.80003522,-1.749981325
Canada,Chilliwack,1.8576725592e-05,1.50396443108e-05,49.16664878,-121.949983
Ecuador,Quito,1.48613804736e-05,1.60853945256e-05,-0.214988181,-78.50005111
United States of America,Dalton,2.22920707104e-05,1.27246247513e-05,34.76972394,-84.97030217
United States of America,Valdosta,0.0,8.74119454371e-06,30.8328583,-83.27859664
United States of America,Waterville,1.48613804736e-05,1.23893460565e-05,44.5518917,-69.64578536
United States of America,Owensboro,1.48613804736e-05,1.25250540996e-05,37.77457928,-87.11332381
Canada,Prince George,1.11460353552e-05,1.17187886668e-05,53.91666892,-122.7666515
United Kingdom,Norwich,3.34381060657e-05,2.02284812546e-05,52.63036501,1.300013386
United States of America,Casper,2.60074158289e-05,1.38102890964e-05,42.86661989,-106.3124878
United States of America,Kokomo,7.43069023682e-06,1.40896880088e-05,40.48676516,-86.13364201
United States of America,Flint,1.8576725592e-05,1.94701127782e-05,43.0128642,-83.68753809
United States of America,Fort Smith,1.48613804736e-05,1.32754397499e-05,35.38622377,-94.39835718
United States of America,Walla Walla,1.11460353552e-05,1.58618753957e-05,46.06515851,-118.3418828
United States of America,Ukiah,2.22920707104e-05,1.98213571251e-05,39.15423667,-123.2108621
United States of America,Winona,2.60074158289e-05,1.31078004025e-05,44.0504236,-91.63919743
United States of America,Lumberton,1.48613804736e-05,1.05373304089e-05,34.62720034,-79.01190617
United States of America,Sherman,1.48613804736e-05,1.39619627917e-05,33.63599469,-96.60858403
United States of America,Roseburg,1.11460353552e-05,1.70193851755e-05,43.21843304,-123.3560987
United States of America,Texarkana,1.48613804736e-05,1.26767277949e-05,33.44210472,-94.03747481
United States of America,Brownsville,1.48613804736e-05,1.30120064897e-05,25.91997988,-97.50000248
United States of America,Sumter,1.11460353552e-05,1.05612788871e-05,33.92065432,-80.34172164
New Zealand,Dunedin,3.71534511841e-06,3.97544738152e-06,-45.87995278,170.4799711
United States of America,Winter Haven,2.60074158289e-05,8.66136628303e-06,28.02191876,-81.73300623
United States of America,Abilene,3.71534511841e-06,1.07369010605e-05,32.4486253,-99.73278609
Czech Republic,Prague,2.60074158289e-05,2.48744860257e-05,50.08333701,14.46597978
United States of America,Waukegan,7.43069023682e-06,1.35708043144e-05,42.36404075,-87.8447262
United States of America,Edinburg,0.0,1.38422204007e-05,26.30318646,-98.1599622
Uruguay,Montevideo,7.43069023682e-06,1.15511493194e-05,-34.85804157,-56.17105229
United States of America,Joplin,0.0,1.41296021391e-05,37.08459556,-94.51307886
United States of America,Brookings,1.11460353552e-05,1.40178425742e-05,44.30676455,-96.78803044
United States of America,Victoria,3.71534511841e-06,1.07847980169e-05,28.80499758,-97.00334029
Italy,Milan,7.43069023682e-06,2.39484782019e-05,45.4699752,9.20500891
United States of America,Temple,7.43069023682e-06,1.57900299611e-05,31.10209251,-97.36300826
Canada,Oshawa,7.43069023682e-06,1.28284014902e-05,43.87999473,-78.84997807
United States of America,Wichita Falls,1.8576725592e-05,1.69156084366e-05,33.91362632,-98.49306848
United States of America,Monticello,7.43069023682e-06,1.1862479536e-05,37.87178265,-109.3421995
Cambodia,Phnom Penh,1.11460353552e-05,4.23089781568e-06,11.55003013,104.9166345
Lebanon,Beirut,1.48613804736e-05,2.35094227682e-05,33.87197512,35.50970821
Canada,Charlottetown,1.11460353552e-05,9.75501345426e-06,46.24928164,-63.13132512
United States of America,Lake Charles,2.22920707104e-05,1.28842812726e-05,30.22638369,-93.21718897
United States of America,Grand Forks,3.71534511841e-06,1.57501158308e-05,47.92527753,-97.0324858
United States of America,Bethel,7.43069023682e-06,9.92265280167e-06,60.79330345,-161.7557961
United States of America,Pocatello,0.0,1.43371556169e-05,42.87134829,-112.4447234
United States of America,Fort Pierce,7.43069023682e-06,1.01621375837e-05,27.44678591,-80.3258053
United States of America,San Angelo,2.97227609473e-05,1.15910634497e-05,31.4640084,-100.4366966
United States of America,Gulfport,1.48613804736e-05,9.45964888976e-06,30.3675637,-89.09276371
Canada,Sarnia,1.11460353552e-05,8.09458563225e-06,42.96663963,-82.3999681
United States of America,Victorville,1.11460353552e-05,1.18065997536e-05,34.5365082,-117.2903191
United States of America,Daytona Beach,2.22920707104e-05,1.30040236637e-05,29.21055422,-81.0230754
United Kingdom,Plymouth,1.11460353552e-05,1.518333518e-05,50.38538576,-4.159989259
United States of America,Idaho Falls,1.11460353552e-05,1.48640221373e-05,43.46668662,-112.0333014
United States of America,Yuma,1.8576725592e-05,1.28284014902e-05,32.68527753,-114.6236084
United States of America,Lawton,3.71534511841e-06,7.14462933024e-06,34.59903668,-98.40997278
South Africa,Johannesburg,7.43069023682e-05,4.48475168462e-05,-26.17004474,28.03000972
United States of America,Goldsboro,0.0,6.52995172306e-06,35.38513857,-77.99305363
United States of America,Joliet,2.22920707104e-05,1.16309775801e-05,41.52998313,-88.10667403
United States of America,Slidell,1.11460353552e-05,1.07129525823e-05,30.27495953,-89.78109379
United States of America,Eagle,1.48613804736e-05,1.31716630111e-05,64.78799501,-141.1999966
United States of America,Coos Bay,7.43069023682e-06,1.11759564942e-05,43.36661521,-124.2165888
United States of America,West Bend,3.71534511841e-06,9.22016410775e-06,43.42570721,-88.18333602
United States of America,Elkhart,1.11460353552e-05,1.35947527926e-05,41.68294537,-85.96879419
United States of America,Lake Havasu City,7.43069023682e-06,1.0313811279e-05,34.49829348,-114.3082789
United States of America,Galveston,2.22920707104e-05,1.53669401796e-05,29.301143,-94.7974801
United States of America,Hutchinson,1.11460353552e-05,8.88488541292e-06,38.06549176,-97.92349085
New Zealand,Tauranga,1.11460353552e-05,6.37827802778e-06,-37.69642129,176.1536299
United States of America,Kearney,7.43069023682e-06,1.04175880178e-05,40.70070559,-99.08114628
United States of America,Laredo,3.71534511841e-06,1.13515786677e-05,27.50613629,-99.50721847
United States of America,Parkersburg,2.22920707104e-05,9.81887606279e-06,39.26665875,-81.56164718
United States of America,Niagara Falls,3.71534511841e-06,8.01475737158e-06,43.09482302,-79.0369434
Japan,Yokohama,0.0,3.20111325299e-06,35.32002626,139.5800484
United States of America,Klamath Falls,1.48613804736e-05,9.40376910729e-06,42.22500531,-121.7805359
Ghana,Accra,3.34381060657e-05,1.41535506173e-05,5.550034606,-0.21671574
Saudi Arabia,Riyadh,2.97227609473e-05,2.69340551511e-05,24.64083315,46.77274166
United States of America,London,3.71534511841e-06,8.23827650147e-06,37.12888226,-84.08335372
Netherlands,Rotterdam,4.08687963025e-05,2.36371479853e-05,51.9199691,4.479974323
Canada,Courtenay,1.11460353552e-05,1.26767277949e-05,49.68333559,-124.9999777
United States of America,Baytown,7.43069023682e-06,1.24452258389e-05,29.75584393,-94.96772811
United States of America,Rock Island,7.43069023682e-06,1.33313195324e-05,41.49339622,-90.53461369
United States of America,Galesburg,7.43069023682e-06,9.26007823808e-06,40.94777061,-90.37108362
United States of America,Dothan,3.71534511841e-06,7.67149585069e-06,31.22345461,-85.39058659
United States of America,Beckley,1.11460353552e-05,9.14831867314e-06,37.78018618,-81.18301396
United States of America,Zanesville,1.48613804736e-05,6.05098215902e-06,39.94028688,-82.01332503
United States of America,Paterson,1.11460353552e-05,1.37224780097e-05,40.91999453,-74.17000533
United States of America,Williamsport,0.0,8.58153802236e-06,41.24108604,-77.0013829
United States of America,Minot,2.22920707104e-05,1.00184467145e-05,48.23249392,-101.2958173
United States of America,Moorhead,0.0,9.58737410684e-06,46.87430808,-96.74219344
Canada,Sydney,1.11460353552e-05,7.12068085204e-06,46.06611452,-60.17998071
Indonesia,Surabaya,7.43069023682e-06,6.79338498328e-06,-7.249235821,112.7508333
Canada,North Bay,7.43069023682e-06,6.25853563677e-06,46.30000205,-79.44999313
India,Bangalore,3.71534511841e-05,5.05552374843e-05,12.96999514,77.56000972
Canada,Orangeville,2.22920707104e-05,7.04085259137e-06,43.91707257,-80.08333948
Venezuela,Caracas,7.43069023682e-06,1.02260001922e-05,10.50099855,-66.91703719
Ecuador,Guayaquil,3.71534511841e-06,8.30213911e-06,-2.220033754,-79.92004195
United Kingdom,Swansea,1.11460353552e-05,1.21099471441e-05,51.6299868,-3.950002077
United States of America,Elmira,7.43069023682e-06,1.17028230147e-05,42.09012982,-76.80803552
Brazil,Belo Horizonte,7.43069023682e-06,7.91098063271e-06,-19.91502602,-43.91500452
United States of America,Beaufort,3.71534511841e-06,1.09524373644e-05,32.43216636,-80.68950403
Japan,Osaka,0.0,2.80995477569e-06,34.75003522,135.4601448
Jordan,Amman,1.48613804736e-05,1.59177551782e-05,31.95002525,35.93329993
Norway,Bergen,2.22920707104e-05,1.34750104016e-05,60.39100242,5.324522256
United States of America,Rhinelander,7.43069023682e-06,5.69175498599e-06,45.63991315,-89.41207239
India,Mumbai,2.60074158289e-05,4.49033966286e-05,19.01699038,72.8569893
Netherlands,Utrecht,3.34381060657e-05,2.09150042964e-05,52.10034568,5.120038614
United States of America,Bryan,1.8576725592e-05,8.07063715405e-06,30.67418581,-96.36968388
United States of America,Pontiac,7.43069023682e-06,6.6177628098e-06,42.65185264,-83.29022384
United States of America,Kingman,7.43069023682e-06,9.57939128077e-06,35.18987917,-114.0522221
United States of America,Sidney,3.71534511841e-06,8.03072302372e-06,41.13980023,-102.9782727
United States of America,Madisonville,3.71534511841e-06,7.13664650418e-06,37.33274579,-87.5022148
Canada,Belleville,3.71534511841e-06,7.31226867766e-06,44.16666974,-77.38334924
United States of America,Bartlesville,0.0,9.94660127987e-06,36.74720013,-95.98058618
United States of America,Superior,3.71534511841e-06,8.78110867404e-06,46.72124249,-92.10389775
United States of America,Arcata,7.43069023682e-06,8.15844824079e-06,40.88519045,-124.0882245
United States of America,Brainerd,1.48613804736e-05,8.99664497786e-06,46.35800885,-94.20084986
United States of America,Salina,7.43069023682e-06,7.62359889428e-06,38.82467023,-97.6071794
Canada,Campbell River,7.43069023682e-06,6.70557389654e-06,50.01708783,-125.2499882
United States of America,Lufkin,0.0,6.85724759182e-06,31.33843467,-94.72887964
Saudi Arabia,Jeddah,7.43069023682e-06,1.56303734398e-05,21.51688946,39.21919755
United States of America,Bemidji,3.71534511841e-06,9.51552867224e-06,47.47357383,-94.88018823
United Kingdom,Ipswich,1.48613804736e-05,1.14314069284e-05,52.07034751,1.169995482
United States of America,Southaven,7.43069023682e-06,7.04883541744e-06,34.96891075,-90.00345748
United States of America,Biloxi,7.43069023682e-06,8.82102280438e-06,30.39580487,-88.88530868
United Kingdom,York,7.43069023682e-06,1.34590447495e-05,53.97038658,-1.080022218
United States of America,Alpine,7.43069023682e-06,7.82316954597e-06,30.36071657,-103.6650009
Canada,Penticton,1.11460353552e-05,8.86093693472e-06,49.50037518,-119.5832799
Indonesia,Bandung,1.48613804736e-05,6.72153954868e-06,-6.950029278,107.5700126
United States of America,Harlingen,0.0,6.84128193969e-06,26.19755983,-97.69019759
Saint Lucia,Castries,0.0,4.70986737971e-06,14.00197349,-61.00000818
United States of America,Centralia,1.11460353552e-05,6.88119607002e-06,46.71641075,-122.9529708
New Zealand,Palmerston North,7.43069023682e-06,3.04145673165e-06,-40.35269326,175.6072033
United States of America,Petoskey,3.71534511841e-06,6.19467302823e-06,45.37375368,-84.95518681
Nicaragua,Managua,7.43069023682e-06,6.36231237565e-06,12.15301658,-86.26849166
United States of America,Beaver Falls,1.11460353552e-05,6.45810628846e-06,40.75194277,-80.31942326
United Kingdom,Bournemouth,3.34381060657e-05,1.23733804043e-05,50.72999005,-1.900049684
United States of America,Glasgow,0.0,5.3245449869e-06,48.18396975,-106.6352588
Aruba,Oranjestad,0.0,5.62789237745e-06,12.53038373,-70.02899195
United States of America,Williston,3.71534511841e-06,1.03856567136e-05,48.15678794,-103.6280005
United States of America,La Grande,3.71534511841e-06,7.43999389473e-06,45.32468691,-118.0866012
United States of America,Lake City,3.71534511841e-06,7.76728976349e-06,30.18971926,-82.63974675
United States of America,Spencer,0.0,5.7875488988e-06,43.14528505,-95.14717452
United States of America,Hays,0.0,7.0089212871e-06,38.87936973,-99.322191
Ireland,Galway,1.11460353552e-05,6.16274172396e-06,53.272393,-9.048812298
Belgium,Antwerpen,1.48613804736e-05,1.22296895351e-05,51.22037355,4.415017048
United States of America,Bullhead City,7.43069023682e-06,7.41604541653e-06,35.14817629,-114.5674878
United States of America,Alamogordo,3.71534511841e-06,6.72952237474e-06,32.89947634,-105.9597187
Japan,Kyoto,0.0,1.34111477931e-06,35.02999229,135.7499979
Malaysia,Shah Alam,7.43069023682e-06,5.38840759544e-06,3.066695996,101.5499977
United Kingdom,Luton,0.0,8.90883389112e-06,51.88035911,-0.420010825
United States of America,Dillon,0.0,8.50969258775e-06,45.21567548,-112.6839852
Canada,Whitehorse,1.11460353552e-05,8.23827650147e-06,60.71671897,-135.0499844
Canada,Nelson,0.0,7.3761312862e-06,49.48365786,-117.2832911
United States of America,Houma,3.71534511841e-06,7.3761312862e-06,29.59593121,-90.71948613
United Arab Emirates,Abu Dhabi,1.8576725592e-05,2.84108779736e-05,24.46668357,54.36659338
United States of America,Mason City,0.0,4.82960977072e-06,43.15401837,-93.20083338
United Kingdom,Sunderland,3.71534511841e-06,6.41819215812e-06,54.92001853,-1.380029746
Qatar,Doha,4.45841414209e-05,3.12367984014e-05,25.28655601,51.53296789
Costa Rica,Heredia,0.0,4.48634824983e-06,9.991997986,-84.12000251
United States of America,Paducah,0.0,9.41973475943e-06,37.08371706,-88.60000309
United States of America,Wilkes Barre,1.11460353552e-05,5.97115389835e-06,41.24904421,-75.87793726
Bulgaria,Sofia,1.48613804736e-05,1.95978379953e-05,42.68334943,23.31665401
United States of America,Palmer,3.71534511841e-06,5.89132563768e-06,61.59971417,-149.1126919
United States of America,Petersburg,1.11460353552e-05,6.9610243307e-06,37.22776512,-77.40223698
Canada,Medicine Hat,3.71534511841e-06,7.04085259137e-06,50.03331423,-110.6833322
New Zealand,Whangarei,7.43069023682e-06,3.26497586153e-06,-35.71995278,174.3100215
Macedonia,Skopje,0.0,9.21218128168e-06,42.00000612,21.43346147
United States of America,Hopkinsville,7.43069023682e-06,4.47836542376e-06,36.86548749,-87.4886239
United States of America,Enid,0.0,6.51398607093e-06,36.39554201,-97.8780931
United States of America,Gadsden,1.11460353552e-05,6.9610243307e-06,34.01455039,-86.00664718
Guyana,Georgetown,0.0,7.20849193878e-06,6.801973693,-58.16702865
United Kingdom,Dundee,3.71534511841e-06,7.82316954597e-06,56.47038902,-3.000008384
Brazil,Curitiba,1.11460353552e-05,6.84926476575e-06,-25.420013,-49.3199976
United States of America,El Centro,3.71534511841e-06,5.77956607273e-06,32.79237693,-115.5580475
United States of America,Casa Grande,3.71534511841e-06,5.44428737791e-06,32.87937421,-111.7566258
Brazil,Porto Alegre,3.71534511841e-06,7.471925199e-06,-30.05001463,-51.20001205
United States of America,Orangeburg,0.0,6.51398607093e-06,33.49680422,-80.86223251
United States of America,Alton,3.71534511841e-06,7.16059498238e-06,38.89099693,-90.18422164
United States of America,Tupelo,1.11460353552e-05,6.21862150644e-06,34.25792055,-88.70333012
United States of America,Crestview,0.0,4.63003911904e-06,30.75420677,-86.57260746
Canada,Cornwall,3.71534511841e-06,5.58797824712e-06,45.01705711,-74.73333012
Kuwait,Kuwait,3.71534511841e-06,1.44568980079e-05,29.36971763,47.97830115
Germany,Stuttgart,2.60074158289e-05,1.29720923594e-05,48.77997988,9.199996296
United States of America,Wailuku,3.71534511841e-06,5.98711955048e-06,20.89147544,-156.5047213
United Kingdom,Peterborough,1.8576725592e-05,9.88273867133e-06,52.58041974,-0.249995363
United Kingdom,Bath,1.11460353552e-05,9.61132258504e-06,51.3837486,-2.350022218
United States of America,Cedar City,0.0,5.08506020488e-06,37.67742759,-113.061094
United States of America,Tillamook,1.11460353552e-05,1.0082309323e-05,45.45524742,-123.8425031
United Kingdom,Portsmouth,7.43069023682e-06,8.95673084752e-06,50.80034751,-1.080022218
New Zealand,Nelson,3.71534511841e-06,3.51244346962e-06,-41.29258421,173.2474507
Sweden,Uppsala,1.11460353552e-05,8.90085106505e-06,59.86005292,17.63999792
Indonesia,Denpasar,7.43069023682e-06,1.93184390829e-06,-8.650028871,115.2199849
United States of America,Nacogdoches,7.43069023682e-06,6.34634672351e-06,31.60374147,-94.65526656
Fiji,Suva,0.0,1.60454803953e-06,-18.13301593,178.4417073
United States of America,Vicksburg,7.43069023682e-06,5.11699150915e-06,32.3524813,-90.8777452
Mexico,Monterrey,1.11460353552e-05,7.00093846103e-06,25.66999514,-100.3299848
United States of America,Homer,3.71534511841e-06,6.14677607183e-06,59.64293439,-151.5482797
United States of America,Enterprise,3.71534511841e-06,7.52780498148e-06,31.32781516,-85.84399561
United Kingdom,Exeter,1.11460353552e-05,9.35587215089e-06,50.70040529,-3.529950197
United States of America,Pendleton,7.43069023682e-06,5.14892281342e-06,45.67259849,-118.7874886
Canada,Brandon,3.71534511841e-06,6.43415781025e-06,49.83327476,-99.94998214
Australia,Canberra,0.0,5.66780650779e-07,-35.28302855,149.1290262
United States of America,Gillette,3.71534511841e-06,4.5901249887e-06,44.28317425,-105.5052503
United States of America,Galena,3.71534511841e-06,3.94351607725e-06,64.73329551,-156.9269953
United States of America,Cape Girardeau,1.11460353552e-05,6.46608911452e-06,37.30582237,-89.51808659
Taiwan,Taichung,0.0,2.15536303817e-06,24.15207745,120.681667
Bangladesh,Dhaka,3.71534511841e-06,2.51858162424e-05,23.72305971,90.40857947
Suriname,Paramaribo,7.43069023682e-06,4.9573349878e-06,5.83503013,-55.16703089
Pakistan,Karachi,7.43069023682e-06,1.8623933215e-05,24.86999229,66.99000891
United States of America,Bishop,0.0,4.46239977163e-06,37.36395835,-118.394076
United States of America,Alliance,0.0,3.33682129614e-06,42.10139528,-102.8701915
United States of America,Bar Harbor,3.71534511841e-06,5.8354458552e-06,44.38789654,-68.20437464
United States of America,Los Alamos,1.8576725592e-05,8.27020780574e-06,35.89110252,-106.2977084
United States of America,Muskogee,1.11460353552e-05,7.14462933024e-06,35.74821718,-95.36943486
China,Guangzhou,1.11460353552e-05,2.74609216716e-06,23.1449813,113.3250101
El Salvador,San Salvador,3.71534511841e-06,5.96317107228e-06,13.71000165,-89.20304122
Norway,Trondheim,1.8576725592e-05,1.05612788871e-05,63.41665753,10.41666622
South Africa,Cape Town,2.60074158289e-05,2.70218662379e-05,-33.92001097,18.43498816
United Kingdom,Middlesbrough,1.11460353552e-05,6.75347085295e-06,54.58037518,-1.230013063
Estonia,Tallinn,1.8576725592e-05,1.40018769221e-05,59.43387738,24.72804073
Kenya,Nairobi,1.8576725592e-05,3.46135338279e-05,-1.283346742,36.81665686
Latvia,Riga,3.71534511841e-06,1.15591321455e-05,56.95002382,24.09996537
Turkey,Ankara,1.8576725592e-05,1.49039362677e-05,39.92723859,32.86439164
United States of America,Alpena,0.0,4.07124129433e-06,45.06160219,-83.43269576
New Zealand,Napier,3.71534511841e-06,2.61836695008e-06,-39.4900069,176.9150305
Canada,Sherbrooke,1.11460353552e-05,6.11484476756e-06,45.40000531,-71.89998885
Sri Lanka,Colombo,1.48613804736e-05,1.45287434425e-05,6.931965758,79.85775061
India,Chennai,7.43069023682e-06,2.46988638523e-05,13.08998781,80.27999874
Canada,Orillia,7.43069023682e-06,4.05527564219e-06,44.59997662,-79.41666183
Belgium,Gent,7.43069023682e-06,7.45595954687e-06,51.02999758,3.700021931
Ireland,Limerick,3.71534511841e-06,4.89347237926e-06,52.664704,-8.623050172
United States of America,Sitka,7.43069023682e-06,3.40866673074e-06,57.06039769,-135.3275494
United States of America,Douglas,7.43069023682e-06,5.77956607273e-06,42.75647158,-105.3845341
United States of America,Douglas,7.43069023682e-06,5.77956607273e-06,31.50777834,-82.85068994
United States of America,Douglas,7.43069023682e-06,5.77956607273e-06,31.35864016,-109.5483627
Slovakia,Bratislava,0.0,8.12651693652e-06,48.15001833,17.11698075
United States of America,Gary,7.43069023682e-06,5.3245449869e-06,41.58039349,-87.33000309
Morocco,Casablanca,3.71534511841e-06,6.83329911362e-06,33.59997622,-7.616367433
United States of America,Virginia,7.43069023682e-06,2.93767999277e-06,47.52367413,-92.53640365
India,Delhi,2.60074158289e-05,3.11569701407e-05,28.6699929,77.23000403
United States of America,Butte,1.11460353552e-05,6.73750520081e-06,46.0038961,-112.5338394
Ecuador,Cuenca,0.0,5.05312890061e-06,-2.89999225,-78.99999475
New Zealand,New Plymouth,7.43069023682e-06,2.96162847097e-06,-39.0641931,174.0805265
United States of America,Selma,1.11460353552e-05,4.40651998916e-06,32.40756838,-87.0211589
United States of America,Twin Falls,3.71534511841e-06,5.3484934651e-06,42.5609538,-114.4605693
United States of America,Palatka,7.43069023682e-06,6.83329911362e-06,29.64768516,-81.65130579
Trinidad and Tobago,San Fernando,7.43069023682e-06,4.89347237926e-06,10.28046166,-61.45937678
Italy,Florence,0.0,8.67733193517e-06,43.78000083,11.25000036
United States of America,Benton Harbor,3.71534511841e-06,5.19681976982e-06,42.11663983,-86.45419092
Slovenia,Ljubljana,1.11460353552e-05,1.46963827899e-05,46.05528831,14.51496903
United States of America,Crescent City,3.71534511841e-06,6.31441541924e-06,41.7564551,-124.2004916
Brazil,Campinas,0.0,3.74394542557e-06,-22.90001178,-47.10002975
Canada,Brockville,3.71534511841e-06,3.79982520804e-06,44.5892796,-75.69531275
Honduras,Tegucigalpa,0.0,5.30857933476e-06,14.1020449,-87.21752934
South Africa,Pretoria,1.8576725592e-05,1.71071962622e-05,-25.70692055,28.22942908
United States of America,Moab,7.43069023682e-06,6.34634672351e-06,38.57370363,-109.5491895
Pakistan,Lahore,3.71534511841e-06,1.70193851755e-05,31.55997154,74.35002478
United Kingdom,Blackpool,0.0,4.61407346691e-06,53.83039512,-3.050005332
Canada,Cranbrook,3.71534511841e-06,6.09887911543e-06,49.5166791,-115.7666653
Mexico,Guadalajara,0.0,5.01321477027e-06,20.67001609,-103.3300342
Ukraine,Kiev,7.43069023682e-06,1.12877160592e-05,50.43336733,30.51662797
Brazil,Salvador,3.71534511841e-06,3.00952542738e-06,-12.9699719,-38.47998743
Hong Kong S.A.R.,Hong Kong,3.71534511841e-06,3.04145673165e-06,22.3049809,114.1850093
United Kingdom,Chester,3.71534511841e-06,6.14677607183e-06,53.20002016,-2.919987428
Mexico,Tijuana,7.43069023682e-06,5.15690563948e-06,32.50001752,-117.079996
Brazil,Recife,0.0,2.29905390739e-06,-8.075645326,-34.91560551
United States of America,Willmar,0.0,3.6641171649e-06,45.12188275,-95.04330489
Italy,Turin,3.71534511841e-06,8.11055128439e-06,45.07038719,7.669960489
Cyprus,Nicosia,1.11460353552e-05,9.89870432347e-06,35.16667645,33.36663489
United States of America,Emporia,7.43069023682e-06,3.33682129614e-06,38.40423077,-96.18137496
United States of America,Kirksville,3.71534511841e-06,3.6641171649e-06,40.19368227,-92.58280908
Netherlands,Groningen,1.11460353552e-05,8.47776128349e-06,53.22040651,6.580001179
Canada,Timmins,7.43069023682e-06,4.02334433793e-06,48.46658815,-81.33331486
United States of America,Tulare,0.0,5.54806411678e-06,36.20702639,-119.3441213
Mexico,Puerto Vallarta,3.71534511841e-06,4.40651998916e-06,20.67709576,-105.2449819
Germany,Frankfurt,1.8576725592e-05,7.0328697653e-06,50.09997683,8.67501542
United Kingdom,Carlisle,3.71534511841e-06,5.18883694375e-06,54.87999514,-2.929986818
Bosnia and Herzegovina,Sarajevo,0.0,7.08076672171e-06,43.8500224,18.38300167
United States of America,Dickinson,3.71534511841e-06,3.95948172939e-06,46.88399742,-102.7888011
Switzerland,Lausanne,1.11460353552e-05,1.02339830183e-05,46.53042727,6.650022744
India,Hyderabad,2.22920707104e-05,2.35014399422e-05,17.39998313,78.47995357
France,Lyon,3.71534511841e-06,8.48574410955e-06,45.77000856,4.830030475
Lithuania,Vilnius,7.43069023682e-06,1.2804453012e-05,54.68336631,25.31663529
Canada,Corner Brook,3.71534511841e-06,4.94935216173e-06,48.94999534,-57.93334782
Norway,Stavanger,7.43069023682e-06,9.14831867314e-06,58.97000389,5.680004434
Macau S.A.R,Macau,0.0,1.98772369076e-06,22.20299746,113.5450484
United States of America,Wahiawa,3.71534511841e-06,5.82746302914e-06,21.50309186,-158.0236209
United States of America,Cleburne,0.0,4.57415933657e-06,32.35152529,-97.39248967
United States of America,Dodge City,3.71534511841e-06,3.25699303546e-06,37.76005821,-100.018195
United States of America,El Dorado,0.0,4.51029672803e-06,33.21392743,-92.66251998
Australia,Hobart,0.0,4.94935216173e-07,-42.85000853,147.2950297
Spain,Valencia,7.43069023682e-06,7.29630302552e-06,39.48501752,-0.400012046
China,Shenzhen,3.71534511841e-06,1.22935521437e-06,22.55237051,114.1221231
United States of America,Hobbs,7.43069023682e-06,2.63433260221e-06,32.71261436,-103.1406143
Bolivia,La Paz,0.0,2.78600629749e-06,-16.49797361,-68.14998519
Japan,Kawasaki,0.0,9.81887606279e-07,35.52998761,139.705002
United States of America,Pierre,3.71534511841e-06,1.94780956042e-06,44.36833701,-100.350552
Canada,Moose Jaw,3.71534511841e-06,3.95948172939e-06,50.39998435,-105.5500021
United States of America,Hancock,0.0,4.19098368534e-06,47.12729006,-88.5808053
Costa Rica,Alajuela,3.71534511841e-06,5.57201259498e-06,10.02002016,-84.23003727
Puerto Rico,Ponce,0.0,2.29905390739e-06,18.00038576,-66.61664209
United States of America,Kankakee,0.0,2.67424673255e-06,41.12036989,-87.86110763
Malaysia,Kuching,0.0,1.97175803863e-06,1.529969909,110.3299991
United States of America,Yankton,0.0,3.46454651321e-06,42.88201947,-97.39248967
Taiwan,Kaohsiung,0.0,1.47682282245e-06,22.63330711,120.2666019
Canada,Cochrane,7.43069023682e-06,4.66197042331e-06,49.06701662,-81.01656417
United States of America,Vernal,2.22920707104e-05,2.65029825435e-06,40.45539756,-109.5280022
Thailand,Phuket,0.0,1.59656521346e-06,7.876533426,98.3815295
Canada,Powell River,1.11460353552e-05,3.87965346871e-06,49.88371096,-124.5499793
United States of America,Texas City,3.71534511841e-06,3.12926781839e-06,29.41087791,-94.96276717
Japan,Nagoya,0.0,1.50875412672e-06,35.15499758,136.9149914
United States of America,Lihue,0.0,3.50446064355e-06,21.98151227,-159.3710063
United States of America,Iron Mountain,0.0,6.83329911362e-06,45.82246014,-88.06409265
New Zealand,Hastings,0.0,1.59656521346e-06,-39.63821491,176.8367924
United States of America,Pilot Point,0.0,3.17716477479e-06,57.56455996,-157.5691266
Brazil,Fortaleza,0.0,3.80780803411e-06,-3.750017884,-38.57998132
United States of America,Gunnison,3.71534511841e-06,3.20111325299e-06,38.54476483,-106.92829
Pakistan,Islamabad,3.71534511841e-05,2.06835023404e-05,33.69999595,73.16663448
United States of America,Elko,7.43069023682e-06,3.21707890513e-06,40.83250633,-115.7619886
Dominica,Roseau,0.0,1.94780956042e-06,15.30101564,-61.38701298
Nepal,Kathmandu,7.43069023682e-06,7.68746150282e-06,27.71669191,85.31664221
United States of America,Seward,3.71534511841e-06,3.87965346871e-06,60.1261607,-149.4699827
India,Pune,1.48613804736e-05,2.08830729921e-05,18.53001752,73.85000362
Canada,Prince Albert,7.43069023682e-06,4.19896651141e-06,53.20002016,-105.7499899
Canada,Bathurst,3.71534511841e-06,1.46883999639e-06,47.59997438,-65.64998275
United States of America,New Iberia,7.43069023682e-06,4.25484629388e-06,30.00358075,-91.81830794
Germany,Essen,3.71534511841e-06,4.4943310759e-06,51.44999778,7.016615355
Taiwan,Hsinchu,0.0,9.26007823808e-07,24.8167914,120.9767395
Ireland,Waterford,3.71534511841e-06,1.95579238649e-06,52.2582947,-7.111927939
Albania,Tirana,0.0,4.11913825073e-06,41.32754071,19.81888301
Canada,Camrose,0.0,2.34695086379e-06,53.01669802,-112.8166386
United States of America,Natchez,0.0,1.69235912627e-06,31.55480389,-91.38750737
United States of America,Cody,0.0,2.84188607996e-06,44.52321128,-109.0571007
United States of America,North Platte,3.71534511841e-06,2.65828108041e-06,41.13628623,-100.7705005
United States of America,Richfield,0.0,2.19527716851e-06,38.77247703,-112.0832984
United States of America,Tomah,7.43069023682e-06,2.93767999277e-06,43.98505292,-90.50389205
United States of America,Glenwood Springs,0.0,4.67793607544e-06,39.54658999,-107.3247
India,New Delhi,3.71534511841e-06,1.94701127782e-05,28.60002301,77.19998002
United States of America,Ottumwa,7.43069023682e-06,2.88978303637e-06,41.01288291,-92.414809
United States of America,Cadillac,0.0,2.08351760357e-06,44.25121238,-85.41360844
United States of America,Craig,0.0,1.64446216987e-06,40.51728009,-107.5503968
United States of America,Faribault,0.0,2.37089934199e-06,44.29048647,-93.26801274
South Africa,Durban,1.11460353552e-05,1.13675443199e-05,-29.865013,30.98001054
Canada,Antigonish,0.0,1.74025608267e-06,45.62691652,-61.99819015
Thailand,Nonthaburi,3.71534511841e-06,1.35708043144e-06,13.83368919,100.4833134
Denmark,Odense,0.0,5.10900868308e-06,55.40037681,10.38333492
United States of America,Mitchell,7.43069023682e-06,5.46823585611e-06,43.71429425,-98.02619776
New Zealand,Invercargill,3.71534511841e-06,1.69235912627e-06,-46.40942951,168.3650097
Germany,Bonn,3.71534511841e-06,4.4943310759e-06,50.72045575,7.080022337
Portugal,Coimbra,0.0,2.70617803682e-06,40.20037437,-8.41668034
United States of America,Atlantic City,1.11460353552e-05,3.13725064445e-06,39.36463727,-74.4233232
Canada,Terrace,3.71534511841e-06,2.63433260221e-06,54.49999249,-128.5833248
Italy,Naples,0.0,4.1271210768e-06,40.84002525,14.24501135
Canada,Steinbach,0.0,2.76205781929e-06,49.51709251,-96.68330815
Poland,Wroclaw,7.43069023682e-06,5.04514607454e-06,51.11043194,17.03000932
United States of America,Hereford,0.0,2.27510542918e-06,34.82191713,-102.3985924
Canada,Yellowknife,0.0,4.08720694646e-06,62.44201418,-114.3969814
Belize,Belize City,3.71534511841e-06,4.76574716219e-06,17.49871096,-88.18837447
Poland,Poznan,7.43069023682e-06,5.26866520443e-06,52.4057534,16.89993974
Japan,Sapporo,0.0,3.67209999096e-07,43.07497927,141.3400443
United States of America,Escanaba,7.43069023682e-06,4.23089781568e-06,45.7456948,-87.06436039
Germany,Bremen,3.71534511841e-06,4.13510390287e-06,53.08000165,8.80002071
Netherlands,Eindhoven,1.48613804736e-05,5.97913672442e-06,51.42997316,5.50001542
China,Hangzhou,0.0,1.58059956133e-06,30.24997398,120.1700187
Germany,Karlsruhe,1.8576725592e-05,4.13510390287e-06,48.99999229,8.399993448
Taiwan,Tainan,0.0,6.06694781116e-07,23.00000307,120.2000427
Senegal,Dakar,3.71534511841e-06,3.31287281793e-06,14.71583173,-17.47313013
United States of America,Scottsbluff,0.0,3.26497586153e-06,41.86750775,-103.6606859
Italy,Bologna,0.0,5.14093998735e-06,44.50042198,11.34002071
Egypt,Alexandria,3.71534511841e-06,3.33682129614e-06,31.20001935,29.94999589
New Zealand,Rotorua,0.0,1.28523499684e-06,-38.13458576,176.2454073
France,Montpellier,0.0,5.92325694195e-06,43.61039878,3.869985716
United States of America,Albert Lea,0.0,1.73227325661e-06,43.64778668,-93.36870427
United States of America,Port Arthur,3.71534511841e-06,1.03776738875e-06,29.89898765,-93.92859257
United Kingdom,Inverness,0.0,2.4427447766e-06,57.46712404,-4.23326644
South Korea,Busan,0.0,1.02180173662e-06,35.09505292,129.0100476
United States of America,Havre,0.0,3.17716477479e-06,48.54523968,-109.6776829
United Kingdom,Lisburn,3.71534511841e-06,1.83604999548e-06,54.52037884,-6.670016929
Germany,Leipzig,3.71534511841e-06,6.92111020036e-06,51.33540529,12.40998124
France,Toulouse,3.71534511841e-06,7.93492911091e-06,43.61995892,1.449926716
Luxembourg,Luxembourg,7.43069023682e-06,4.69390172758e-06,49.61166038,6.130002806
Venezuela,Valencia,0.0,1.09364717122e-06,10.22998151,-67.9800214
United States of America,Barstow,0.0,2.8339032539e-06,34.89901837,-117.0218858
United Kingdom,Perth,0.0,3.16119912266e-06,56.40034161,-3.469979697
United States of America,National City,0.0,2.24317412491e-06,32.67194501,-117.0980052
Canada,Selkirk,0.0,2.05956912537e-06,50.15002545,-96.88332178
Canada,Pembroke,3.71534511841e-06,2.87381738423e-06,45.85026206,-77.11664718
United States of America,Poplar Bluff,7.43069023682e-06,2.30703673345e-06,36.76019676,-90.40268376
United States of America,Marinette,0.0,2.45871042873e-06,45.10038535,-87.63047571
United States of America,Price,0.0,2.45072760266e-06,39.59979087,-110.8100169
Germany,Mannheim,3.71534511841e-06,4.31870890242e-06,49.50037518,8.470015013
Finland,Turku,3.71534511841e-06,3.74394542557e-06,60.4538668,22.25496171
United States of America,Hot Springs,0.0,1.50875412672e-06,34.50395205,-93.05500248
United States of America,Glendive,0.0,2.22720847278e-06,47.10858319,-104.7104926
United States of America,Kanab,0.0,2.9057486885e-06,37.04738853,-112.5254936
United Arab Emirates,Sharjah,3.71534511841e-06,7.99879171945e-06,25.37138287,55.40647823
Spain,Zaragoza,3.71534511841e-06,3.48849499142e-06,41.65000165,-0.889982138
South Korea,Daegu,0.0,8.78110867404e-07,35.86678876,128.6069714
India,Kolkata,7.43069023682e-06,1.15112351891e-05,22.4949693,88.32467566
Chile,Concepcion,3.71534511841e-06,2.40283064626e-06,-36.83001422,-73.05002202
Malaysia,Ipoh,0.0,1.34909760538e-06,4.599989236,101.0649833
Jamaica,Montego Bay,0.0,2.40283064626e-06,18.46668805,-77.91667586
Indonesia,Semarang,0.0,1.77218738694e-06,-6.966617412,110.4200195
Australia,Richmond,0.0,2.23519129885e-07,-33.59951373,150.7399873
Australia,Richmond,0.0,2.23519129885e-07,-20.71626911,143.1333199
Malaysia,Kota Kinabalu,3.71534511841e-06,1.99570651683e-06,5.979982523,116.1100081
France,Strasbourg,0.0,3.32883847007e-06,48.57996625,7.750007282
United States of America,Green River,0.0,3.48051216535e-06,41.51455772,-109.4649827
France,Bordeaux,7.43069023682e-06,5.3245449869e-06,44.85001304,-0.595013063
United States of America,Safford,0.0,1.26128651864e-06,32.83382143,-109.7068801
United States of America,Ketchikan,3.71534511841e-06,4.9333865096e-06,55.3562193,-131.6639895
Nigeria,Abuja,7.43069023682e-06,2.45871042873e-06,9.083333149,7.533328002
United States of America,Ironwood,0.0,1.6364793438e-06,46.4558065,-90.15939112
United States of America,Coffeyville,0.0,1.12557847549e-06,37.03806093,-95.6263184
United States of America,Del Rio,0.0,2.24317412491e-06,29.36294802,-100.8963843
United States of America,Ponca City,0.0,2.76205781929e-06,36.7073576,-97.08527328
Germany,Dortmund,7.43069023682e-06,4.62205629297e-06,51.52996706,7.450025593
Bahrain,Manama,7.43069023682e-06,9.69115084572e-06,26.23613629,50.58305172
Dominican Republic,Santiago,3.71534511841e-06,1.56463390919e-06,19.50000999,-70.67001225
Mexico,Hermosillo,0.0,1.21338956223e-06,29.09888145,-110.954065
Switzerland,Bern,0.0,3.94351607725e-06,46.91668276,7.466975462
Canada,Quesnel,0.0,2.69819521075e-06,52.98367678,-122.4832837
French Polynesia,Papeete,0.0,1.78017021301e-06,-17.53336261,-149.5666694
Jamaica,Mandeville,3.71534511841e-06,9.33990649875e-07,18.03300305,-77.49999851
Colombia,Cali,7.43069023682e-06,3.09733651412e-06,3.399959126,-76.49996647
Canada,Yarmouth,0.0,1.27725217077e-06,43.83079447,-66.1125812
Ireland,Tralee,3.71534511841e-06,1.40497738785e-06,52.26669212,-9.716652671
United States of America,Calais,0.0,8.14248258866e-07,45.16598859,-67.24239201
Germany,Dresden,0.0,4.55819368444e-06,51.04997052,13.75000281
United Kingdom,Dumfries,0.0,1.2932178229e-06,55.06708966,-3.550000652
Austria,Innsbruck,7.43069023682e-06,3.04145673165e-06,47.28040733,11.4099906
Netherlands,Arnhem,3.71534511841e-06,2.50660738514e-06,51.98799603,5.922999562
Romania,Iasi,0.0,4.44643411949e-06,47.16834698,27.57494706
Switzerland,Basel,0.0,7.18454346058e-06,47.58038902,7.590017048
Mexico,Puebla,0.0,2.20325999458e-06,19.04995994,-98.20003727
Indonesia,Bekasi,3.71534511841e-06,2.13141455997e-06,-6.217257468,106.972323
Mongolia,Ulaanbaatar,0.0,2.87381738423e-06,47.9166734,106.9166158
Canada,Banff,3.71534511841e-06,1.28523499684e-06,51.17799888,-115.5719227
Germany,Wiesbaden,0.0,3.84772216444e-06,50.08039146,8.250028441
Costa Rica,Cartago,0.0,2.03562064716e-06,9.86997764,-83.92997807
United States of America,Ely,0.0,1.79613586515e-06,47.90042116,-91.82569767
United States of America,Ely,0.0,1.79613586515e-06,39.24702171,-114.887675
United States of America,Perryville,0.0,3.36076977434e-06,55.91861391,-159.1511489
Canada,Wetaskiwin,3.71534511841e-06,2.01167216896e-06,52.96657188,-113.3832966
United States of America,Delano,0.0,3.44059803501e-06,35.76193728,-119.2430681
Georgia,Tbilisi,0.0,7.28832019946e-06,41.72500999,44.79079545
Japan,Kobe,0.0,7.4240282426e-07,34.67998781,135.1699816
United States of America,Waycross,1.11460353552e-05,2.66626390648e-06,31.21381695,-82.35490625
South Korea,Incheon,0.0,1.08566434515e-06,37.47614789,126.6422334
United States of America,Polson,0.0,3.03347390558e-06,47.68800519,-114.156686
United States of America,Vernon,0.0,1.99570651683e-06,34.15105369,-99.29038416
United States of America,Houlton,0.0,1.93184390829e-06,46.12551658,-67.83971989
Japan,Naha,0.0,7.26437172125e-07,26.20717165,127.6729716
American Samoa,Pago Pago,0.0,6.94505867856e-07,-14.2766105,-170.7066451
China,Nanjing,0.0,9.89870432347e-07,32.05001914,118.7799743
Honduras,San Pedro Sula,3.71534511841e-06,1.89192977795e-06,15.50002159,-88.02998621
Turkey,Izmir,0.0,9.25209541201e-06,38.43614968,27.15179401
Puerto Rico,Mayaguez,0.0,1.38102890964e-06,18.20151044,-67.13971094
New Zealand,Queenstown,0.0,1.02978456268e-06,-45.02997882,168.6625109
Vietnam,Da Nang,0.0,7.90299780664e-07,16.06003908,108.2499711
United States of America,Big Spring,0.0,2.56248716761e-06,32.24318565,-101.4751862
Ireland,Dundalk,0.0,1.12557847549e-06,54.00041058,-6.416673219
Sweden,Halmstad,0.0,1.65244499593e-06,56.67177207,12.85558712
Thailand,Khon Kaen,0.0,9.89870432347e-07,16.42004295,102.8300435
United States of America,Kenai,0.0,1.34909760538e-06,60.55435162,-151.2580131
Venezuela,Maracaibo,3.71534511841e-06,1.28523499684e-06,10.72997683,-71.65997766
United States of America,Pine Bluff,3.71534511841e-06,2.59441847188e-06,34.22869753,-92.00305119
Portugal,Braga,3.71534511841e-06,2.41081347233e-06,41.55499453,-8.421331219
Canada,Williams Lake,0.0,2.10746608177e-06,52.1166496,-122.1499966
Canada,Revelstoke,0.0,1.78815303908e-06,51.0004645,-118.1833395
United States of America,Paragould,0.0,2.4427447766e-06,36.05708722,-90.50288436
United States of America,Gallup,0.0,1.14952695369e-06,35.52407066,-108.7339938
Canada,Peace River,3.71534511841e-06,2.15536303817e-06,56.23332338,-117.2832911
Belize,Belmopan,3.71534511841e-06,1.62051369166e-06,17.25203351,-88.767073
Sweden,Helsingborg,7.43069023682e-06,3.83973933838e-06,56.05049217,12.70004106
United States of America,Brownwood,0.0,1.67639347414e-06,31.70789532,-98.98231511
Norway,Drammen,0.0,2.80995477569e-06,59.75724265,10.19073686
Malaysia,Johor Bahru,0.0,2.28308825525e-06,1.480024637,103.7300402
Morocco,Rabat,0.0,2.22720847278e-06,34.02529909,-6.83613082
Indonesia,Yogyakarta,0.0,2.01965499503e-06,-7.77995278,110.3750093
United States of America,Alice,0.0,1.55665108313e-06,27.75046246,-98.07048446
Canada,North Battleford,3.71534511841e-06,1.80411869121e-06,52.76663576,-108.2833494
Grenada,Saint George's,0.0,1.46883999639e-06,12.0526334,-61.74164323
United States of America,Presque Isle,0.0,2.70617803682e-06,46.79340863,-68.00216476
Austria,Graz,3.71534511841e-06,3.13725064445e-06,47.0777582,15.41000484
Canada,Amherst,0.0,9.73904780212e-07,45.81656903,-64.21658187
Italy,Verona,0.0,3.77587672984e-06,45.44039044,10.99001623
Canada,Dawson Creek,0.0,1.75622173481e-06,55.76696942,-120.233266
Malaysia,Seremban,0.0,1.42094303998e-06,2.710492166,101.9400203
Mexico,La Paz,0.0,2.67424673255e-06,24.13995933,-110.3199952
Italy,Palermo,0.0,2.70617803682e-06,38.12502301,13.35002722
United States of America,Winnemucca,0.0,1.94780956042e-06,40.97337628,-117.7346847
United States of America,Eagle Pass,3.71534511841e-06,2.38686499413e-06,28.71102399,-100.4892774
Portugal,Funchal,7.43069023682e-06,1.32514912717e-06,32.64998252,-16.88003972
France,Rouen,0.0,7.82316954597e-07,49.43040529,1.079975137
Thailand,Lampang,0.0,3.43261520894e-07,18.29155662,99.48125565
Czech Republic,Brno,7.43069023682e-06,5.53209846465e-06,49.20039349,16.60998328
China,Xiamen,0.0,4.07124129433e-07,24.44999208,118.080017
Canada,Thompson,0.0,8.78110867404e-07,55.74994204,-97.86662093
Canada,Owen Sound,0.0,1.78815303908e-06,44.56664532,-80.84998519
Canada,Gander,0.0,9.26007823808e-07,48.94999534,-54.54998845
Finland,Tampere,3.71534511841e-06,4.82162694466e-06,61.5000045,23.75001257
China,Chengdu,0.0,1.20540673616e-06,30.67000002,104.0700195
Papua New Guinea,Port Moresby,0.0,9.57939128077e-08,-9.464707826,147.1925036
Netherlands,Haarlem,1.8576725592e-05,5.8354458552e-06,52.38043194,4.629991006
Canada,Kenora,0.0,2.04360347323e-06,49.76668968,-94.46664758
Ireland,Sligo,1.11460353552e-05,1.6125308656e-06,54.26706097,-8.483317099
Sweden,Kristianstad,0.0,1.08566434515e-06,56.03367149,14.1332869
Serbia,Novi Sad,0.0,2.39484782019e-06,45.2503762,19.84994055
Armenia,Yerevan,0.0,3.72797977343e-06,40.18115074,44.51355139
France,Nice,0.0,5.36445911723e-06,43.71501772,7.265023965
Canada,Hinton,3.71534511841e-06,1.26128651864e-06,53.39998212,-117.5833503
Norway,Lillehammer,0.0,1.42892586605e-06,61.13328269,10.5000203
Germany,Freiburg,0.0,5.05312890061e-06,48.00041506,7.869948281
United States of America,Kitty Hawk,3.71534511841e-06,1.6125308656e-06,36.07731854,-75.70471786
South Korea,Daejeon,0.0,1.07768151909e-06,36.33554567,127.425028
Spain,Las Palmas,0.0,8.70128041337e-07,28.09997601,-15.42999902
Germany,Braunschweig,3.71534511841e-06,1.94780956042e-06,52.24997479,10.5000203
Canada,Drummondville,0.0,1.05373304089e-06,45.88333498,-72.4833641
Austria,Salzburg,7.43069023682e-06,3.08137086198e-06,47.81047833,13.0400203
Canada,Brooks,0.0,1.10162999729e-06,50.56705426,-111.9000021
United Kingdom,Greenock,0.0,1.75622173481e-06,55.93329002,-4.750030763
Serbia,Nis,0.0,1.37304608358e-06,43.33041587,21.8999963
Ireland,Drogheda,0.0,1.49278847459e-06,53.71926495,-6.347762697
Australia,Launceston,0.0,1.43690869212e-07,-41.44983559,147.1301818
Spain,Bilbao,0.0,2.60240129794e-06,43.24998151,-2.929986818
Chile,Antofagasta,0.0,9.02059345606e-07,-23.64999184,-70.40000289
United States of America,Lander,0.0,2.80995477569e-06,42.83300437,-108.7325985
Spain,Alicante,3.71534511841e-06,2.9296971667e-06,38.3512199,-0.483640721
United States of America,Port Lavaca,3.71534511841e-06,1.37304608358e-06,28.61601687,-96.62969385
Brazil,Santos,0.0,1.55665108313e-06,-23.95372393,-46.33294266
Thailand,Udon Thani,0.0,2.63433260221e-07,17.4047632,102.7893225
Spain,Pamplona,0.0,1.78017021301e-06,42.82000775,-1.649987428
Argentina,La Plata,0.0,1.85201564762e-06,-34.90961465,-57.95996118
Moldova,Chisinau,3.71534511841e-06,3.46454651321e-06,47.00502362,28.85771114
India,Jaipur,0.0,3.96746455545e-06,26.92113324,75.80998734
Canada,Yorkton,0.0,1.59656521346e-06,51.21706626,-102.4665469
Croatia,Split,3.71534511841e-06,3.21707890513e-06,43.52040428,16.46999182
Romania,Timisoara,0.0,3.86368781658e-06,45.75882062,21.22344844
United States of America,Lamar,0.0,2.15536303817e-06,38.08649823,-102.6194058
Spain,Vigo,0.0,1.33313195324e-06,42.22001853,-8.729994549
Germany,Kiel,3.71534511841e-06,3.36875260041e-06,54.33039044,10.13001705
Canada,Chicoutimi,0.0,8.94076519539e-07,48.43330853,-71.06670638
Germany,Mainz,0.0,3.21707890513e-06,49.98247246,8.273219156
Germany,Heidelberg,0.0,3.41664955681e-06,49.41999249,8.699975137
South Korea,Suwon,0.0,5.26866520443e-07,37.25778912,127.0108931
Lithuania,Kaunas,0.0,4.73381585792e-06,54.95040428,23.88003048
Malaysia,Sibu,0.0,4.78969564039e-07,2.302971821,111.8430334
Canada,New Glasgow,0.0,1.20540673616e-06,45.58327578,-62.63331934
United Kingdom,Scarborough,7.43069023682e-06,1.83604999548e-06,54.28039349,-0.429984376
United States of America,Devils Lake,0.0,1.30120064897e-06,48.11221702,-98.85968693
Switzerland,Luzern,3.71534511841e-06,1.33313195324e-06,47.05042137,8.280000772
France,Marseille,0.0,4.48634824983e-06,43.28997906,5.37501013
Netherlands,Maastricht,0.0,3.05742238378e-06,50.85299707,5.677002477
Australia,Townsville,3.71534511841e-06,2.71416086289e-07,-19.24995034,146.7699971
Germany,Augsburg,1.48613804736e-05,3.33682129614e-06,48.35000612,10.89999589
Mexico,Mexicali,1.11460353552e-05,1.05373304089e-06,32.64998252,-115.4800161
Poland,Gdansk,0.0,2.50660738514e-06,54.3599752,18.64004024
United States of America,Willcox,0.0,9.18024997741e-07,32.25321088,-109.8313945
Canada,Creston,0.0,1.1974239101e-06,49.09996035,-116.516697
Norway,Kristiansand,3.71534511841e-06,3.45656368715e-06,58.16664207,8.000017862
New Zealand,Wanganui,0.0,5.58797824712e-07,-39.9311686,175.0288407
United States of America,International Falls,7.43069023682e-06,1.2932178229e-06,48.60112775,-93.4108464
Norway,Moss,0.0,2.49862455907e-06,59.43697797,10.66915727
United States of America,Dalhart,7.43069023682e-06,9.97853258414e-07,36.06080792,-102.5186109
Morocco,Agadir,0.0,1.06171586695e-06,30.43998822,-9.620043581
Sweden,Kalmar,3.71534511841e-06,7.34419998193e-07,56.66701784,16.36658728
United States of America,Trinidad,0.0,1.83604999548e-06,37.17133445,-104.5063965
Sweden,Karlstad,0.0,1.82008434335e-06,59.36713727,13.49994055
Montenegro,Podgorica,0.0,1.96377521256e-06,42.46597251,19.26630692
Poland,Katowice,0.0,2.16334586424e-06,50.26038047,19.02001705
Sweden,Sundsvall,3.71534511841e-06,1.32514912717e-06,62.40005292,17.31665849
Spain,Marbella,0.0,1.660427822e-06,36.51661989,-4.88333012
Estonia,Tartu,3.71534511841e-06,2.29107108132e-06,58.38394147,26.70988358
Japan,Hiroshima,0.0,6.30643259318e-07,34.3878351,132.442913
Mexico,Ensenada,0.0,1.78017021301e-06,31.86997845,-116.6199982
Canada,Prince Rupert,3.71534511841e-06,1.18145825796e-06,54.31667035,-130.3299882
Germany,Bielefeld,0.0,2.61836695008e-06,52.02998822,8.530011351
Norway,Haugesund,0.0,2.4187962984e-06,59.4119149,5.277496703
Japan,Kitakyushu,0.0,8.78110867404e-08,33.87039899,130.8200146
Maldives,Male,3.71534511841e-06,4.09518977253e-06,4.16670819,73.49994747
Mexico,Cuernavaca,0.0,6.70557389654e-07,18.92110476,-99.23999964
China,Qingdao,0.0,3.19313042692e-07,36.08997927,120.3300089
Mexico,Chihuahua,0.0,7.66351302462e-07,28.64498151,-106.0849823
Oman,Muscat,3.71534511841e-06,8.6932975873e-06,23.61332481,58.59331213
Chile,Valparaiso,3.71534511841e-06,8.94076519539e-07,-33.04776447,-71.62101363
Thailand,Chiang Rai,0.0,5.82746302914e-07,19.91187115,99.82645422
United States of America,Miles City,3.71534511841e-06,1.52471977886e-06,46.4088843,-105.8399844
Croatia,Rijeka,0.0,3.07338803592e-06,45.32998374,14.45001176
United Kingdom,Ayr,7.43069023682e-06,1.13356130156e-06,55.4503996,-4.61667973
United States of America,Mendocino,0.0,1.6125308656e-06,39.30776735,-123.7994308
United States of America,Woodward,3.71534511841e-06,1.15750977976e-06,36.43342084,-99.39769027
France,Rennes,0.0,2.8818002103e-06,48.10002138,-1.670012046
Costa Rica,Liberia,3.71534511841e-06,7.34419998193e-07,10.63375531,-85.433323
Brazil,Sorocaba,0.0,5.26866520443e-07,-23.49000161,-47.46998132
Canada,Weyburn,0.0,1.35708043144e-06,49.66656659,-103.8500025
Brazil,Joinville,3.71534511841e-06,1.05373304089e-06,-26.31995807,-48.83994938
United Kingdom,Londonderry,3.71534511841e-06,1.2453208665e-06,55.00037539,-7.333283937
Malaysia,Miri,0.0,3.99141303366e-07,4.399923929,113.9845048
Japan,Fukuoka,0.0,9.73904780212e-07,33.59501528,130.4100138
United States of America,Deming,0.0,7.26437172125e-07,32.26109153,-107.7557848
India,Ahmedabad,3.71534511841e-06,6.46608911452e-06,23.03005292,72.58000362
Canada,Edmundston,0.0,4.151069555e-07,47.37941937,-68.3332815
Brazil,Londrina,0.0,7.02488693923e-07,-23.30003904,-51.17998743
Malaysia,Putrajaya,0.0,4.151069555e-07,2.914019795,101.701947
Austria,Linz,0.0,2.80995477569e-06,48.31923281,14.28878129
Pakistan,Faisalabad,3.71534511841e-06,3.69604846917e-06,31.40998069,73.10999711
Brazil,Manaus,0.0,1.2213723883e-06,-3.100031719,-60.00001754
Canada,Labrador City,3.71534511841e-06,5.42832172577e-07,52.94143129,-66.91587447
Canada,Swift Current,3.71534511841e-06,8.46179563135e-07,50.28373822,-107.766611
China,Fuzhou,0.0,1.03776738875e-07,26.07999595,119.3000459
Guatemala,Quetzaltenango,0.0,3.19313042692e-07,14.82995913,-91.52000574
Portugal,Aveiro,0.0,9.81887606279e-07,40.64100311,-8.650997534
Canada,New Liskeard,0.0,1.03776738875e-06,47.50000633,-79.66664657
Australia,Darwin,0.0,8.78110867404e-08,-12.42535398,130.8500386
Germany,Wuppertal,0.0,1.55665108313e-06,51.25000999,7.169991006
Australia,Gold Coast,0.0,3.51244346962e-07,-28.08150429,153.4482458
Panama,David,0.0,5.98711955048e-07,8.433321146,-82.43332524
China,Tianjin,0.0,7.18454346058e-07,39.13002626,117.2000191
Ireland,Donegal,0.0,7.66351302462e-07,54.65000917,-8.116672812
Bolivia,Cochabamba,0.0,6.46608911452e-07,-17.41001097,-66.16997685
Bolivia,Santa Cruz,0.0,6.46608911452e-07,-17.75391762,-63.22599634
United States of America,Rawlins,0.0,3.2729586876e-07,41.7906649,-107.234292
France,Lille,0.0,1.94780956042e-06,50.64996909,3.080008096
Thailand,Chon Buri,0.0,6.06694781116e-07,13.40040814,100.9999743
United States of America,Lead,0.0,7.02488693923e-07,44.35084454,-103.7657699
Spain,Murcia,3.71534511841e-06,1.82008434335e-06,37.9799931,-1.12996749
Mexico,Toluca,0.0,9.73904780212e-07,19.3303821,-99.66999923
Netherlands,Leeuwarden,0.0,9.33990649875e-07,53.25037884,5.783357298
Romania,Constanta,0.0,1.78815303908e-06,44.20266237,28.60997432
United States of America,Socorro,3.71534511841e-06,1.89192977795e-06,34.06211855,-106.8989895
Brazil,Natal,0.0,6.78540215722e-07,-6.983825664,-60.26994938
Brazil,Natal,0.0,6.78540215722e-07,-5.780023174,-35.24000431
Canada,Sioux Lookout,0.0,8.46179563135e-07,50.26296429,-91.9166482
Canada,Dryden,0.0,8.14248258866e-07,49.78332949,-92.83333643
Zimbabwe,Harare,3.71534511841e-06,3.62420303456e-06,-17.81778969,31.04470943
Namibia,Windhoek,0.0,3.26497586153e-06,-22.57000608,17.0835461
Azerbaijan,Baku,0.0,3.96746455545e-06,40.39527203,49.86221716
Brazil,Sete Lagoas,0.0,9.57939128077e-08,-19.44962807,-44.24999699
Italy,Catania,0.0,2.18729434244e-06,37.49997072,15.07999914
France,Nantes,0.0,3.04145673165e-06,47.21038576,-1.590016929
Croatia,Osijek,3.71534511841e-06,1.10162999729e-06,45.55038373,18.6800378
Vietnam,Vung Tau,0.0,1.75622173481e-07,10.35537437,107.0849776
Chile,Temuco,0.0,8.6214521527e-07,-38.73000161,-72.57999903
France,Toulon,0.0,7.50385650327e-07,43.13418645,5.918821566
Japan,Sendai,0.0,1.91587825615e-07,38.28710614,141.0217175
United States of America,Wales,0.0,5.98711955048e-07,65.60959861,-168.0875027
Mexico,Cabo San Lucas,0.0,1.16549260583e-06,22.89275617,-109.9045164
Gibraltar,Gibraltar,0.0,2.15536303817e-06,36.13243495,-5.37807483
United States of America,Valdez,0.0,1.2932178229e-06,61.13599571,-146.348287
France,Grenoble,3.71534511841e-06,2.96961129704e-06,45.18038047,5.720001992
Argentina,Mendoza,0.0,8.38196737068e-07,-32.88333006,-68.81661117
China,Suzhou,0.0,4.39055433702e-07,31.30047833,120.620017
China,Suzhou,0.0,4.39055433702e-07,33.6361111,116.9788889
Australia,Toowoomba,0.0,3.19313042692e-08,-27.56453327,151.9555204
Venezuela,Barquisimeto,0.0,9.10042171674e-07,10.04999249,-69.29996668
Macedonia,Bitola,0.0,7.18454346058e-07,41.03905703,21.33951371
Canada,Meadow Lake,0.0,3.67209999096e-07,54.13011843,-108.4347356
New Zealand,Taupo,3.71534511841e-06,2.55450434154e-07,-38.69300128,176.0770455
Vietnam,Nha Trang,0.0,2.55450434154e-07,12.25003908,109.1700183
Canada,Baddeck,0.0,1.2932178229e-06,46.09998842,-60.75397669
United States of America,Falfurrias,0.0,3.19313042692e-07,27.22690269,-98.14489852
Japan,Kumamoto,0.0,2.95364564491e-07,32.80092938,130.700642
Algeria,Algiers,0.0,1.06969869302e-06,36.7630648,3.05055253
Poland,Szczecin,0.0,1.56463390919e-06,53.42039431,14.53000688
Slovakia,Kosice,0.0,2.65828108041e-06,48.73044802,21.25001013
Slovenia,Maribor,0.0,1.86798129975e-06,46.54047833,15.65004187
Japan,Nagasaki,0.0,6.38626085385e-08,32.76498842,129.8850329
Botswana,Gaborone,3.71534511841e-06,3.24102738333e-06,-24.64631346,25.91194779
Puerto Rico,Arecibo,0.0,8.30213911e-07,18.44002301,-66.72999435
Australia,Wollongong,0.0,1.11759564942e-07,-34.41538125,150.890004
Spain,Oviedo,0.0,9.57939128077e-07,43.35049217,-5.829990683
Italy,Pisa,3.71534511841e-06,1.81210151728e-06,43.72046958,10.40002641
Mexico,Celaya,0.0,1.20540673616e-06,20.53002464,-100.8000078
