country,city,clicks,views,lat,lng
United States of America,Los Angeles,1.0,1082,33.98997825,-118.1799805
United States of America,New York,3.0,1608,40.74997906,-73.98001693
United States of America,Seattle,0.0,760,47.57000205,-122.339985
United States of America,Chicago,2.0,895,41.82999066,-87.75005497
United States of America,Portland,1.0,934,43.67216158,-70.2455274
United States of America,Portland,1.0,934,45.52002382,-122.6799901
United States of America,San Francisco,2.0,500,37.74000775,-122.4599777
United States of America,Houston,1.0,515,29.81997438,-95.33997929
United States of America,Philadelphia,0.0,686,39.99997316,-75.16999597
United States of America,Austin,0.0,402,30.26694969,-97.74277836
United States of America,San Diego,0.0,369,32.82002382,-117.1799899
United States of America,Denver,0.0,506,39.73918805,-104.984016
United States of America,Minneapolis,1.0,572,44.97997927,-93.25178634
United States of America,San Jose,3.0,368,37.29998293,-121.8499891
United States of America,Atlanta,3.0,564,33.83001385,-84.39994938
Canada,Toronto,1.0,468,43.69997988,-79.42002079
United States of America,Las Vegas,0.0,271,35.59701194,-105.2225027
United States of America,Las Vegas,0.0,271,36.20999778,-115.2200061
United States of America,Oakland,0.0,195,37.76892071,-122.2211034
United States of America,Miami,1.0,375,25.7876107,-80.22410608
United States of America,Columbus,0.0,233,32.47043276,-84.98001734
United States of America,Columbus,0.0,233,39.97997438,-82.9900096
Singapore,Singapore,0.0,130,1.293033466,103.8558207
United States of America,Charlotte,0.0,289,35.20499453,-80.83003809
United States of America,Phoenix,0.0,531,33.53997988,-112.0699917
United States of America,Dallas,1.0,284,32.82002382,-96.84001693
United States of America,Richmond,0.0,180,39.82889833,-84.89028121
United States of America,Richmond,0.0,180,37.55001935,-77.449986
United States of America,Arlington,1.0,228,32.68476076,-97.02023849
United States of America,Rochester,0.0,281,44.02205324,-92.46968937
United States of America,Rochester,0.0,281,43.17042564,-77.61994979
United States of America,Orlando,0.0,260,28.50997683,-81.38003036
United States of America,Boston,1.0,306,42.32996014,-71.07001367
United States of America,Pittsburgh,0.0,236,40.4299986,-79.99998539
United States of America,Indianapolis,2.0,250,39.74998842,-86.17004806
United States of America,Louisville,0.0,115,38.22501691,-85.74870427
United States of America,Cincinnati,0.0,173,39.16188479,-84.45692265
United States of America,Sacramento,0.0,266,38.57502138,-121.4700381
United States of America,Ann Arbor,0.0,81,42.30037539,-83.71999089
United States of America,Madison,0.0,224,43.07301556,-89.40111699
Canada,Calgary,1.0,156,51.08299176,-114.0799982
United States of America,Springfield,0.0,147,44.05194806,-122.9780339
United States of America,Springfield,0.0,147,42.12002464,-72.57999903
United States of America,Springfield,0.0,147,39.92000388,-83.799986
United States of America,Springfield,0.0,147,39.82000999,-89.65001652
United States of America,Springfield,0.0,147,37.18001609,-93.31999923
United States of America,San Antonio,0.0,186,29.48733319,-98.50730534
United States of America,Salt Lake City,1.0,256,40.7750163,-111.9300519
United States of America,Boise,0.0,86,43.60859011,-116.2274899
Canada,Ottawa,0.0,114,45.4166968,-75.7000153
United States of America,Wilmington,0.0,138,39.74626772,-75.54689803
United States of America,Wilmington,0.0,138,34.22551943,-77.94502039
Canada,Winnipeg,0.0,72,49.88298749,-97.16599186
United States of America,Colorado Springs,0.0,115,38.86296246,-104.7919863
United States of America,Newark,0.0,84,40.70042137,-74.17000533
United States of America,Raleigh,1.0,167,35.81878135,-78.64469344
United States of America,Fayetteville,1.0,87,36.06297833,-94.15720911
United States of America,Fayetteville,1.0,87,35.06293601,-78.88359359
United States of America,Buffalo,1.0,212,42.87997825,-78.88000208
United States of America,Columbia,0.0,196,35.61499534,-87.03526656
United States of America,Columbia,0.0,196,38.95207847,-92.33390955
United States of America,Columbia,0.0,196,34.0399752,-80.89998214
United States of America,Nashville,0.0,171,36.16997438,-86.77998499
United States of America,Alexandria,0.0,188,38.82043276,-77.09998153
United States of America,Alexandria,0.0,188,31.31109784,-92.44501388
United States of America,Canton,0.0,89,40.79886497,-81.37863509
United States of America,Kansas City,0.0,87,39.11358052,-94.63014638
United States of America,Kansas City,0.0,87,39.10708851,-94.60409422
United States of America,Baltimore,0.0,193,39.29999005,-76.61998499
United States of America,Pasadena,0.0,67,29.66086265,-95.14774296
United States of America,Pasadena,0.0,67,34.16038129,-118.1388719
United States of America,Charleston,0.0,60,32.79237693,-79.99210474
United States of America,Charleston,0.0,60,38.34973798,-81.63272811
United States of America,Fort Lauderdale,0.0,260,26.13606488,-80.14178552
United States of America,Bremerton,0.0,60,47.57359552,-122.6420175
Ireland,Dublin,0.0,112,53.33306114,-6.248905682
United States of America,Grand Rapids,0.0,110,42.96371991,-85.66994938
United States of America,Medford,0.0,44,42.32662701,-122.8744227
Canada,Edmonton,0.0,124,53.55002464,-113.4999819
United States of America,Knoxville,1.0,48,35.97001243,-83.92003036
United States of America,Honolulu,0.0,173,21.30687644,-157.8579979
United States of America,Omaha,0.0,100,41.24000083,-96.00999007
United States of America,Laurel,0.0,49,31.69737917,-89.1392725
United States of America,Lancaster,0.0,61,39.71921511,-82.6053044
United States of America,Lancaster,0.0,61,40.03777447,-76.30576644
United States of America,Lancaster,0.0,61,34.69804873,-118.135823
United States of America,Virginia Beach,0.0,31,36.85321433,-75.97831873
United States of America,Durham,0.0,38,35.99995892,-78.91999964
Peru,Lima,0.0,30,-12.04801268,-77.05006209
United States of America,Duluth,0.0,39,46.78333173,-92.10637822
United States of America,Milwaukee,1.0,205,43.05265505,-87.91996708
United States of America,Olympia,0.0,90,47.03804486,-122.899434
United States of America,Albuquerque,0.0,147,35.10497479,-106.6413308
United States of America,Santa Cruz,0.0,143,36.97194629,-122.0263904
United States of America,Asheville,0.0,123,35.60119773,-82.55414474
United States of America,Scottsdale,1.0,70,33.69234784,-111.8680402
United Kingdom,London,0.0,198,51.49999473,-0.116721844
United States of America,Irvine,0.0,110,33.68041058,-117.8299502
United States of America,Tallahassee,0.0,74,30.44998761,-84.28003422
United States of America,Oklahoma City,0.0,96,35.47004295,-97.51868351
United States of America,Greenville,0.0,54,33.41037539,-91.06168746
United States of America,Greenville,0.0,54,34.85292299,-82.3941545
United States of America,Greenville,0.0,54,35.61287661,-77.3666836
United States of America,Birmingham,0.0,152,33.53000633,-86.82499516
Canada,Vancouver,0.0,258,49.27341658,-123.1216442
United States of America,Eureka,0.0,19,40.80222394,-124.1474974
United States of America,Des Moines,0.0,40,41.57998008,-93.61998092
United States of America,Boulder,0.0,71,40.03844627,-105.246093
United States of America,Berkeley,0.0,83,37.87390139,-122.271152
United States of America,New Orleans,0.0,55,29.99500246,-90.03996688
United States of America,Riverside,0.0,79,33.94194501,-117.3980386
United States of America,Lexington,1.0,100,38.05001467,-84.50002079
United States of America,Aurora,0.0,190,39.69585736,-104.808497
United States of America,Aurora,0.0,190,41.76539512,-88.29999557
United States of America,Cleveland,0.0,228,41.4699868,-81.69499821
United States of America,Lincoln,0.0,125,40.81997479,-96.68000086
United States of America,Jackson,0.0,45,35.61486615,-88.81389185
United States of America,Jackson,0.0,45,32.29881533,-90.18499679
United States of America,Tampa,0.0,123,27.94698793,-82.45862085
New Zealand,Auckland,0.0,25,-36.850013,174.7649808
United States of America,Marietta,0.0,47,33.95561342,-84.54324813
United States of America,Lansing,0.0,93,42.73352724,-84.54673629
United States of America,Greensboro,0.0,95,36.07000633,-79.80002344
United Kingdom,Glasgow,0.0,58,55.87440472,-4.250707236
United States of America,Bloomington,0.0,25,40.48459475,-88.99359664
United States of America,Bloomington,0.0,25,39.16565716,-86.52640873
United States of America,Jacksonville,0.0,61,34.75432436,-77.43055567
United States of America,Jacksonville,0.0,61,30.33002077,-81.66998682
United States of America,Mobile,0.0,31,30.68002525,-88.04998499
United States of America,Tucson,0.0,203,32.20499676,-110.8899862
United States of America,Wichita,0.0,20,37.71998313,-97.32998702
United States of America,Bozeman,0.0,36,45.68009157,-111.0378325
United States of America,Las Cruces,0.0,18,32.31261293,-106.7778083
United States of America,Bakersfield,0.0,73,35.36997154,-119.0199809
Japan,Tokyo,0.0,29,35.68501691,139.7514074
United States of America,San Marcos,0.0,6,29.88307131,-97.94111251
United States of America,Decatur,0.0,48,39.8407064,-88.95473596
South Korea,Seoul,0.0,6,37.5663491,126.999731
United States of America,Vancouver,0.0,87,45.63030133,-122.6399925
Germany,Berlin,0.0,27,52.52181866,13.40154862
Canada,Courtenay,0.0,12,49.68333559,-124.9999777
United States of America,Memphis,0.0,104,35.1199868,-89.99999516
United States of America,Mesa,0.0,48,33.42391461,-111.7360844
United States of America,Spokane,0.0,90,47.66999595,-117.4199494
United States of America,Garden City,0.0,32,37.97521303,-100.8640866
United States of America,Tacoma,0.0,111,47.21131594,-122.5150131
United States of America,Charlottesville,0.0,51,38.02918907,-78.47692591
Canada,Hamilton,0.0,22,43.24998151,-79.82999577
United States of America,Whittier,0.0,18,60.78415672,-148.6776797
United States of America,Chattanooga,0.0,9,35.06998985,-85.25000086
United States of America,Farmington,0.0,197,36.75415061,-108.1860944
United States of America,Salem,1.0,72,42.5224989,-70.88309175
United States of America,Salem,1.0,72,44.92807029,-123.0238967
United States of America,Fresno,0.0,45,36.7477169,-119.7729841
United States of America,Anchorage,1.0,39,61.21996991,-149.9002149
United States of America,Watertown,0.0,78,43.97515688,-75.91106185
United States of America,Cedar Rapids,0.0,55,41.96998212,-91.66002303
United States of America,West Palm Beach,0.0,24,26.74501996,-80.12362126
United States of America,Allentown,0.0,25,40.59998822,-75.50002751
United States of America,Long Beach,0.0,88,33.78696739,-118.1580439
United States of America,Peoria,0.0,19,40.69998212,-89.67004114
United States of America,Modesto,0.0,35,37.65541343,-120.9899899
Canada,Saskatoon,0.0,22,52.17003135,-106.6699854
United States of America,Sarasota,0.0,54,27.33612083,-82.53078699
Sweden,Stockholm,0.0,30,59.35075995,18.09733473
United States of America,Everett,0.0,32,47.9604175,-122.1999677
United States of America,Mansfield,0.0,12,40.75832481,-82.51554244
United States of America,Glendale,0.0,94,33.58194114,-112.1958238
United States of America,Redding,0.0,46,40.58704327,-122.3905762
United States of America,Florence,0.0,69,34.79969627,-87.67724288
United States of America,Florence,0.0,69,34.19567629,-79.76279057
United States of America,Detroit,0.0,93,42.32996014,-83.08005579
United States of America,Dayton,0.0,87,39.750376,-84.19998743
Canada,Sarnia,0.0,18,42.96663963,-82.3999681
United States of America,Anderson,0.0,10,34.50374534,-82.6502629
United States of America,Athens,0.0,55,33.96129783,-83.3780221
United States of America,Los Alamos,0.0,6,35.89110252,-106.2977084
United States of America,Evansville,0.0,18,37.97469627,-87.5558291
Canada,Victoria,0.0,8,48.43328269,-123.3500009
United States of America,Baton Rouge,0.0,77,30.45794578,-91.14015812
Canada,London,0.0,54,42.9699986,-81.24998661
United States of America,Huntsville,0.0,29,30.72376935,-95.55058659
United States of America,Huntsville,0.0,29,34.71995953,-86.60999536
United States of America,Stamford,0.0,47,41.05334556,-73.53919112
United States of America,Lafayette,0.0,67,40.41720868,-86.87824772
United States of America,Lafayette,0.0,67,30.19997703,-92.01994938
United States of America,Appleton,0.0,32,44.26867902,-88.40050623
United States of America,Concord,0.0,64,43.20807192,-71.53804712
United States of America,Norfolk,0.0,28,42.02871238,-97.43359827
United States of America,Norfolk,0.0,28,36.84995872,-76.28000574
United States of America,Burlington,0.0,168,40.80793418,-91.11276961
United States of America,Burlington,0.0,168,44.47579816,-73.21246688
United States of America,Sanford,0.0,16,28.78995974,-81.27998478
United States of America,Pocatello,0.0,1,42.87134829,-112.4447234
United States of America,Davenport,0.0,9,41.55398684,-90.58753036
United States of America,New Haven,0.0,103,41.33038291,-72.90000533
United States of America,San Mateo,0.0,55,37.55691815,-122.3130616
United States of America,Annapolis,0.0,11,38.9783301,-76.49249923
United States of America,Arcata,0.0,14,40.88519045,-124.0882245
United States of America,Syracuse,0.0,87,43.04999371,-76.15001367
United States of America,Lubbock,0.0,30,33.58000327,-101.8799677
United States of America,Erie,0.0,33,42.12992067,-80.08499313
United States of America,Spring Hill,0.0,14,28.47894513,-82.54771102
United States of America,Clarksville,0.0,23,36.5300816,-87.35943282
United States of America,Reno,0.0,54,39.52997601,-119.8200096
United States of America,Albany,0.0,51,44.62049217,-123.086942
United States of America,Albany,0.0,51,31.57873008,-84.15582992
United States of America,Albany,0.0,51,42.67001691,-73.81994918
United States of America,Toledo,0.0,28,41.67002626,-83.57997359
United States of America,Santa Barbara,1.0,78,34.43498985,-119.7199899
United States of America,Harrisburg,0.0,78,40.27359987,-76.88474919
United States of America,Roswell,0.0,33,33.39453656,-104.5224679
United States of America,Bay City,0.0,36,43.5944566,-83.88889531
United States of America,Bay City,0.0,36,28.98111086,-95.96435978
Malaysia,Kuala Lumpur,0.0,16,3.166665872,101.6999833
United States of America,Lake City,0.0,6,30.18971926,-82.63974675
United States of America,Dover,0.0,41,39.15808657,-75.524703
United States of America,Trenton,0.0,82,40.2169625,-74.74335535
United States of America,Belleville,0.0,60,38.52515362,-90.0002277
United States of America,New Braunfels,0.0,4,29.6978113,-98.12632084
United States of America,Sioux Falls,0.0,34,43.54998903,-96.7299978
United States of America,Helena,0.0,21,46.59274904,-112.035291
United States of America,Santa Rosa,0.0,48,38.45040367,-122.6999889
United States of America,Eugene,0.0,120,44.05001019,-123.1000161
United Kingdom,Nottingham,0.0,18,52.97034426,-1.170016725
United States of America,Jonesboro,0.0,30,35.84257835,-90.70416406
United Kingdom,Manchester,0.0,28,53.50041526,-2.247987103
United States of America,Evanston,0.0,51,42.04834943,-87.69995467
United States of America,Grants Pass,2.0,22,42.43954002,-123.3271857
United Kingdom,Aberdeen,0.0,16,57.17039797,-2.079987021
United States of America,Palm Springs,0.0,13,33.77735557,-116.5330526
United States of America,Fredericksburg,0.0,22,38.30351341,-77.46078638
United States of America,Frankfort,0.0,15,38.2008065,-84.87335718
Guyana,Georgetown,0.0,12,6.801973693,-58.16702865
United States of America,Clarksburg,0.0,48,39.28327272,-80.33691573
United States of America,Youngstown,0.0,10,41.09969932,-80.64973902
Canada,Halifax,0.0,12,44.65002525,-63.60000452
Canada,Kitchener,0.0,82,43.44999514,-80.50000655
United States of America,Carson City,0.0,15,39.16384849,-119.7663953
United States of America,New Bedford,0.0,2,41.6561253,-70.94469833
United States of America,State College,1.0,30,40.79372316,-77.8602452
United States of America,Bellingham,0.0,50,48.76013613,-122.4869269
United States of America,Ithaca,0.0,38,42.44057355,-76.4969434
United States of America,Denton,0.0,14,33.21576194,-97.12883651
United States of America,Bend,0.0,17,44.071921,-121.3099962
United States of America,Little Rock,0.0,25,34.73608258,-92.33109318
United States of America,Grand Island,0.0,20,40.92226829,-98.35798629
United States of America,Covington,1.0,87,39.0840084,-84.50859908
United States of America,Auburn,0.0,50,32.60970074,-85.48083948
United States of America,Odessa,0.0,4,31.84556134,-102.3672248
United States of America,Spartanburg,0.0,39,34.94942873,-81.93227055
Indonesia,Jakarta,0.0,38,-6.174417705,106.8294376
United Kingdom,Liverpool,0.0,12,53.41600181,-2.917997886
Philippines,Quezon City,0.0,12,14.6504352,121.0299662
United States of America,Bangor,0.0,9,44.80115297,-68.77834477
United States of America,Laredo,0.0,18,27.50613629,-99.50721847
United States of America,Lowell,0.0,41,42.63368837,-71.31669112
United States of America,Rockford,0.0,18,42.26970542,-89.06969019
France,Paris,0.0,46,48.86669293,2.333335326
United States of America,Chico,0.0,45,39.72862022,-121.8363982
Australia,Sydney,0.0,4,-33.92001097,151.1851798
United States of America,Jamestown,1.0,18,46.90601158,-98.70297815
United States of America,Jamestown,1.0,18,42.09736452,-79.23553593
United States of America,Monroe,0.0,26,32.50960349,-92.11919397
United States of America,Muskegon,0.0,23,43.23458193,-86.24836369
United States of America,Marion,1.0,88,40.55833701,-85.65917485
United States of America,Lawrence,0.0,40,38.95975242,-95.25522994
United States of America,Iowa City,0.0,132,41.66108624,-91.52997929
United States of America,Astoria,0.0,36,46.18838096,-123.8299974
United States of America,Akron,0.0,80,41.07039878,-81.51999597
Barbados,Bridgetown,0.0,10,13.10200258,-59.61652674
United States of America,Gainesville,0.0,85,29.65138002,-82.32503727
United States of America,Altoona,0.0,22,40.51859784,-78.39496708
United States of America,Rapid City,0.0,15,44.08055096,-103.2305571
United States of America,Yuma,0.0,32,32.68527753,-114.6236084
United States of America,Pensacola,0.0,21,30.42112632,-87.21693506
United States of America,Naples,1.0,53,26.14205935,-81.79499211
United Kingdom,Birmingham,0.0,42,52.47497398,-1.919996787
Canada,Moncton,0.0,4,46.08334861,-64.76667749
United States of America,Melbourne,0.0,17,28.08331036,-80.60832035
Canada,Nanaimo,0.0,10,49.14602021,-123.9342911
United States of America,York,0.0,20,39.96292116,-76.72804041
United States of America,Roanoke,0.0,19,37.27119916,-79.94161686
United States of America,Augusta,0.0,11,33.46081158,-81.98498051
United States of America,Augusta,0.0,11,44.31056276,-69.77998906
United States of America,Clovis,0.0,5,34.40506919,-103.2047706
United States of America,Midland,0.0,10,32.030718,-102.0974996
United States of America,Myrtle Beach,0.0,36,33.68891136,-78.8869784
United States of America,San Bernardino,0.0,6,34.12038373,-117.3000342
United States of America,Kingsport,0.0,10,36.54832338,-82.56194788
United States of America,Ambler,0.0,25,67.08648521,-157.8514091
United Arab Emirates,Dubai,0.0,78,25.22999615,55.27997432
Greece,Athens,0.0,14,37.98332623,23.73332108
United States of America,Waterville,0.0,8,44.5518917,-69.64578536
United States of America,Ocala,0.0,12,29.1873515,-82.14026819
United States of America,Monticello,0.0,19,37.87178265,-109.3421995
United States of America,Hampton,0.0,10,37.03002525,-76.34994979
United States of America,Grand Junction,0.0,4,39.09385276,-108.5499998
United States of America,Utica,0.0,13,43.10117922,-75.23306706
United States of America,La Crosse,0.0,10,43.80136904,-91.23942855
United States of America,Winchester,0.0,10,39.1787313,-78.16663477
Spain,Madrid,0.0,44,40.40002626,-3.683351686
United States of America,Stillwater,0.0,26,36.13535118,-97.06829757
United States of America,El Paso,0.0,16,31.77998395,-106.5099952
United States of America,Miami Beach,0.0,15,25.80991953,-80.13178111
United States of America,Owensboro,0.0,9,37.77457928,-87.11332381
United States of America,Cape Coral,0.0,45,26.60290977,-81.97968368
United States of America,Traverse City,0.0,27,44.76844179,-85.62217452
United States of America,Kalamazoo,0.0,14,42.29215883,-85.58718958
Canada,Kelowna,0.0,23,49.89998903,-119.4833118
United Kingdom,Reading,0.0,16,51.46997072,-0.980028322
United States of America,Cheyenne,0.0,28,41.14000694,-104.8197107
Canada,Regina,0.0,6,50.45003298,-104.6170099
United Kingdom,Belfast,0.0,12,54.60001223,-5.960034425
Belgium,Brussels,0.0,28,50.83331708,4.333316608
United States of America,Oceanside,0.0,7,33.2204645,-117.3349675
Norway,Oslo,0.0,27,59.91669029,10.74997921
Canada,Kingston,0.0,4,44.23371991,-76.48330082
United States of America,Morgantown,0.0,22,39.62981488,-79.95606043
United States of America,Carlsbad,0.0,38,32.420565,-104.2282998
United States of America,Beaumont,0.0,18,30.08626304,-94.10168278
United States of America,Dublin,0.0,59,32.53745709,-82.91828272
Venezuela,Caracas,0.0,8,10.50099855,-66.91703719
United States of America,Topeka,0.0,17,39.05000531,-95.66998499
United States of America,Mankato,0.0,4,44.16362083,-93.99915674
United Kingdom,Leicester,0.0,24,52.62997744,-1.133248943
United States of America,Metairie,0.0,16,29.98386619,-90.15277653
United States of America,Wichita Falls,0.0,14,33.91362632,-98.49306848
United States of America,Hagerstown,0.0,7,39.64164878,-77.72027958
United States of America,Janesville,0.0,12,42.68262596,-89.02157943
United States of America,Elgin,0.0,16,42.03946108,-88.28991866
United States of America,Abilene,0.0,4,32.4486253,-99.73278609
United States of America,Danville,0.0,24,36.58625388,-79.39531946
Australia,Melbourne,0.0,6,-37.82003131,144.9750162
United States of America,Binghamton,0.0,18,42.09901817,-75.91832239
United States of America,Worcester,0.0,26,42.27042889,-71.80002079
Canada,Windsor,0.0,22,44.98059938,-64.12911951
Canada,Windsor,0.0,22,42.33329327,-83.03334029
United States of America,Pueblo,0.0,20,38.2803882,-104.6300066
Dominican Republic,Santo Domingo,0.0,12,18.47007285,-69.90008508
United States of America,Centralia,0.0,5,46.71641075,-122.9529708
United Kingdom,Oxford,0.0,34,51.7704175,-1.249986004
United States of America,Stockton,0.0,24,37.95813397,-121.289739
Belgium,Antwerpen,0.0,25,51.22037355,4.415017048
United States of America,Independence,0.0,14,39.09111391,-94.41528121
Kenya,Nairobi,0.0,10,-1.283346742,36.81665686
United States of America,Providence,0.0,53,41.82110231,-71.4149797
United States of America,Powell,0.0,7,44.75867495,-108.7584367
United States of America,Missoula,0.0,33,46.87224103,-113.9930526
United Kingdom,Southampton,0.0,16,50.90003135,-1.399976849
Ecuador,Quito,0.0,12,-0.214988181,-78.50005111
Canada,Chilliwack,0.0,4,49.16664878,-121.949983
United States of America,Vallejo,0.0,32,38.11194887,-122.258052
Portugal,Lisbon,0.0,21,38.72272288,-9.144866305
Canada,Abbotsford,0.0,26,49.05037681,-122.2999874
Puerto Rico,San Juan,0.0,10,18.44002301,-66.12997929
United States of America,Grand Forks,0.0,12,47.92527753,-97.0324858
United States of America,Fort Wayne,0.0,18,41.08039817,-85.12998234
Spain,Granada,0.0,52,37.16497825,-3.585011435
United States of America,Green Bay,0.0,22,44.5299809,-88.00001388
United States of America,Hartford,0.0,33,41.77002016,-72.67996708
Austria,Vienna,0.0,7,48.20001528,16.36663896
Serbia,Belgrade,0.0,6,44.81864545,20.46799068
United States of America,Wheeling,0.0,10,40.06431032,-80.72107833
United Kingdom,Brighton,0.0,14,50.83034568,-0.169974407
Turkey,Istanbul,0.0,64,41.10499615,29.01000159
Ecuador,Cuenca,0.0,6,-2.89999225,-78.99999475
United States of America,Manchester,0.0,32,42.99599184,-71.45528731
United States of America,Eau Claire,0.0,34,44.81135907,-91.49835331
Nigeria,Lagos,1.0,8,6.443261653,3.391531071
United Kingdom,Sheffield,0.0,14,53.36667666,-1.499996583
United States of America,Jefferson City,0.0,6,38.57662335,-92.17332503
United States of America,Brunswick,0.0,33,31.1496865,-81.49165145
United States of America,Salisbury,0.0,11,35.67078005,-80.4744784
Thailand,Bangkok,0.0,26,13.74999921,100.5166447
United Kingdom,Norwich,0.0,4,52.63036501,1.300013386
United States of America,Poughkeepsie,0.0,18,41.70023114,-73.92141585
Netherlands,Rotterdam,0.0,4,51.9199691,4.479974323
United States of America,Homer,0.0,18,59.64293439,-151.5482797
United States of America,South Bend,0.0,10,41.68330711,-86.25001734
United States of America,Meridian,0.0,41,32.36418601,-88.70361434
Jamaica,Kingston,0.0,35,17.97707662,-76.76743371
United States of America,Quincy,0.0,16,39.9359719,-91.40972823
United States of America,Idaho Falls,0.0,62,43.46668662,-112.0333014
Russia,Moscow,0.0,18,55.75216412,37.61552283
United States of America,Montgomery,0.0,12,32.36160219,-86.27918868
United States of America,Visalia,0.0,12,36.32502952,-119.3160094
United States of America,Waterloo,0.0,48,42.49315432,-92.34279789
United States of America,Crestview,0.0,8,30.75420677,-86.57260746
Canada,Fredericton,0.0,12,45.94999758,-66.63330774
United States of America,Sheboygan,0.0,8,43.75082949,-87.71442407
United States of America,Provo,0.0,18,40.24889854,-111.63777
Poland,Warsaw,0.0,18,52.25000063,20.99999955
United States of America,Kokomo,0.0,12,40.48676516,-86.13364201
United States of America,Amarillo,0.0,16,35.22998008,-101.8299966
United States of America,Manhattan,0.0,1,39.19402753,-96.59243514
United States of America,Shreveport,0.0,3,32.50001752,-93.77002344
United States of America,Coral Gables,0.0,24,25.71541872,-80.29107874
Estonia,Tallinn,0.0,8,59.43387738,24.72804073
Ireland,Cork,1.0,52,51.89860089,-8.49577112
United States of America,Norman,0.0,12,35.22791302,-97.34414636
United States of America,Lumberton,0.0,17,34.62720034,-79.01190617
United States of America,New London,0.0,14,41.3555235,-72.10002832
United States of America,Goldsboro,0.0,4,35.38513857,-77.99305363
Saudi Arabia,Jeddah,0.0,14,21.51688946,39.21919755
United States of America,Daytona Beach,0.0,20,29.21055422,-81.0230754
United States of America,Vero Beach,0.0,26,27.64225201,-80.39112431
United Kingdom,Edinburgh,0.0,58,55.94832786,-3.219090618
United States of America,Rocky Mount,0.0,4,35.93799888,-77.79076624
United States of America,Kearney,0.0,6,40.70070559,-99.08114628
Italy,Rome,0.0,42,41.89595563,12.48325842
United Kingdom,Cambridge,0.0,10,52.20039125,0.116623086
India,Hyderabad,0.0,14,17.39998313,78.47995357
United States of America,Eagle,0.0,35,64.78799501,-141.1999966
United States of America,Waukesha,0.0,4,43.0116498,-88.23136926
United States of America,Freeport,0.0,12,28.95948427,-95.35687748
United States of America,Corpus Christi,0.0,20,27.74281435,-97.40189478
United States of America,Dodge City,0.0,12,37.76005821,-100.018195
Bolivia,La Paz,0.0,7,-16.49797361,-68.14998519
United States of America,Johnson City,0.0,10,36.31332481,-82.35361434
United States of America,Montpelier,0.0,29,44.25997154,-72.57581323
United States of America,Montpelier,0.0,29,42.32262209,-111.2969123
United States of America,Kalispell,0.0,6,48.19776735,-114.3159786
Egypt,Cairo,0.0,10,30.04996035,31.24996822
United States of America,Alpine,0.0,27,30.36071657,-103.6650009
United States of America,Salinas,0.0,14,36.68221702,-121.6416555
United States of America,Kissimmee,0.0,22,28.29205731,-81.4077806
United States of America,Casper,0.0,4,42.86661989,-106.3124878
Portugal,Porto,0.0,10,41.15000633,-8.620001263
United States of America,Conroe,0.0,10,30.31206321,-95.45586369
United States of America,Elmira,0.0,1,42.09012982,-76.80803552
United States of America,Pittsfield,0.0,32,42.44819582,-73.25982833
United States of America,Hattiesburg,0.0,6,31.32727256,-89.2902452
United States of America,Texarkana,0.0,4,33.44210472,-94.03747481
United States of America,Minot,0.0,6,48.23249392,-101.2958173
United States of America,Blacksburg,0.0,26,37.22941876,-80.41419784
United States of America,Rock Hill,0.0,8,34.94038535,-81.03000004
Taiwan,Taipei,0.0,6,25.03583333,121.5683333
United Kingdom,Sunderland,0.0,22,54.92001853,-1.380029746
United States of America,Victorville,0.0,6,34.5365082,-117.2903191
Canada,Cochrane,0.0,6,49.06701662,-81.01656417
United States of America,Palmer,0.0,13,61.59971417,-149.1126919
Slovenia,Ljubljana,0.0,6,46.05528831,14.51496903
United States of America,Ontario,0.0,4,44.02662661,-116.9618895
United States of America,Fort Collins,0.0,71,40.56068829,-105.0588693
United States of America,Leesburg,0.0,15,28.81050112,-81.88333297
United States of America,Corvallis,0.0,32,44.57235557,-123.2799793
Brazil,Porto Alegre,0.0,10,-30.05001463,-51.20001205
Finland,Helsinki,0.0,12,60.17556337,24.93412634
South Africa,Cape Town,0.0,10,-33.92001097,18.43498816
New Zealand,Hamilton,0.0,16,-37.77000853,175.3000386
United States of America,Salina,0.0,6,38.82467023,-97.6071794
Italy,Naples,0.0,10,40.84002525,14.24501135
United States of America,Hancock,0.0,16,47.12729006,-88.5808053
Croatia,Zagreb,0.0,10,45.80000673,15.99999467
Suriname,Paramaribo,0.0,6,5.83503013,-55.16703089
Germany,Hamburg,0.0,12,53.55002464,9.999999144
United States of America,Tulsa,0.0,54,36.12000327,-95.93002079
United States of America,Dillon,0.0,10,45.21567548,-112.6839852
United States of America,Billings,0.0,6,45.78830202,-108.5400004
Pakistan,Lahore,0.0,22,31.55997154,74.35002478
United States of America,Wailuku,0.0,8,20.89147544,-156.5047213
United Kingdom,Bradford,0.0,6,53.80003522,-1.749981325
Australia,Perth,0.0,18,-31.95501463,115.8399987
Germany,Kassel,0.0,6,51.30000694,9.500029662
United States of America,Fargo,0.0,13,46.8772278,-96.7894257
United States of America,Kingman,0.0,7,35.18987917,-114.0522221
United States of America,Joplin,0.0,30,37.08459556,-94.51307886
United States of America,Fort Pierce,0.0,4,27.44678591,-80.3258053
Argentina,Buenos Aires,0.0,10,-34.60250161,-58.39753137
United Kingdom,Portsmouth,0.0,12,50.80034751,-1.080022218
Bulgaria,Varna,0.0,6,43.21564252,27.89528926
Argentina,Santa Fe,0.0,1,-31.62387205,-60.69000126
United States of America,Shawnee,0.0,15,35.34278973,-96.93378382
United States of America,San Luis Obispo,0.0,34,35.28318097,-120.6585889
Ghana,Accra,0.0,4,5.550034606,-0.21671574
Romania,Bucharest,0.0,12,44.4333718,26.09994665
United States of America,Brownsville,0.0,4,25.91997988,-97.50000248
Canada,Corner Brook,0.0,16,48.94999534,-57.93334782
Netherlands,Amsterdam,0.0,42,52.34996869,4.916640176
South Africa,Johannesburg,1.0,30,-26.17004474,28.03000972
United States of America,Richland,0.0,4,46.29181134,-119.2911013
Canada,Red Deer,0.0,14,52.26664044,-113.8000411
United States of America,Dothan,0.0,5,31.22345461,-85.39058659
United States of America,Schenectady,0.0,7,42.81458173,-73.93996769
United States of America,Ogden,0.0,10,41.23237856,-111.9680341
United Kingdom,Cardiff,0.0,8,51.49999473,-3.22500757
United States of America,Aiken,0.0,17,33.5494625,-81.72060388
India,Delhi,0.0,14,28.6699929,77.23000403
New Zealand,Wellington,0.0,4,-41.29997394,174.7832743
El Salvador,San Salvador,0.0,22,13.71000165,-89.20304122
United States of America,Conway,0.0,6,35.09128054,-92.4513184
United States of America,Waterbury,0.0,4,41.55000775,-73.05002202
United States of America,Harlingen,0.0,4,26.19755983,-97.69019759
United States of America,West Bend,0.0,14,43.42570721,-88.18333602
Canada,Barrie,1.0,12,44.38376243,-79.7000037
Norway,Bergen,0.0,13,60.39100242,5.324522256
United States of America,Saginaw,0.0,17,43.4194802,-83.95082951
United States of America,New Albany,0.0,1,38.3108773,-85.82128382
United Kingdom,Bournemouth,0.0,12,50.72999005,-1.900049684
United States of America,Galveston,0.0,6,29.301143,-94.7974801
Chile,Santiago,0.0,29,-33.45001382,-70.66704085
United States of America,Coos Bay,0.0,14,43.36661521,-124.2165888
United States of America,Dalton,0.0,29,34.76972394,-84.97030217
Spain,Barcelona,0.0,58,41.38329958,2.183370319
India,Bangalore,0.0,23,12.96999514,77.56000972
Jordan,Amman,1.0,40,31.95002525,35.93329993
United States of America,Elkhart,0.0,6,41.68294537,-85.96879419
United States of America,Kankakee,0.0,1,41.12036989,-87.86110763
United States of America,Sumter,0.0,12,33.92065432,-80.34172164
United States of America,Gary,0.0,4,41.58039349,-87.33000309
United States of America,Bristol,0.0,10,36.61152366,-82.17600244
Romania,Timisoara,0.0,6,45.75882062,21.22344844
United States of America,Lander,0.0,4,42.83300437,-108.7325985
Lithuania,Vilnius,0.0,10,54.68336631,25.31663529
Ireland,Galway,0.0,12,53.272393,-9.048812298
United States of America,Johnstown,0.0,4,40.32708498,-78.92222172
United Kingdom,Blackpool,0.0,4,53.83039512,-3.050005332
United States of America,Dubuque,0.0,6,42.50093162,-90.66445073
Bulgaria,Sofia,0.0,20,42.68334943,23.31665401
United States of America,Hickory,0.0,4,35.7334894,-81.34140222
United States of America,Twin Falls,0.0,6,42.5609538,-114.4605693
United States of America,Cedar City,0.0,12,37.67742759,-113.061094
United States of America,Merced,0.0,1,37.30261843,-120.481933
Spain,Valencia,0.0,20,39.48501752,-0.400012046
United States of America,Gadsden,0.0,11,34.01455039,-86.00664718
New Zealand,Tauranga,0.0,16,-37.69642129,176.1536299
United States of America,Bismarck,0.0,4,46.80831728,-100.7833163
Germany,Munich,0.0,8,48.12994204,11.57499345
Czech Republic,Prague,0.0,10,50.08333701,14.46597978
United States of America,Savannah,0.0,32,32.02110618,-81.10999516
Canada,Drummondville,0.0,4,45.88333498,-72.4833641
United Kingdom,Bristol,0.0,24,51.44999778,-2.583315472
United Kingdom,Ipswich,0.0,4,52.07034751,1.169995482
Saint Lucia,Castries,0.0,4,14.00197349,-61.00000818
India,New Delhi,0.0,22,28.60002301,77.19998002
Morocco,Casablanca,0.0,6,33.59997622,-7.616367433
South Africa,Port Elizabeth,0.0,1,-33.97003375,25.60002885
United States of America,Niagara Falls,0.0,1,43.09482302,-79.0369434
United States of America,Battle Creek,0.0,13,42.32109764,-85.17974675
United States of America,Alliance,0.0,28,42.10139528,-102.8701915
United States of America,Baytown,0.0,31,29.75584393,-94.96772811
Norway,Moss,0.0,25,59.43697797,10.66915727
United States of America,Juneau,0.0,57,58.31412661,-134.419997
United States of America,Williston,0.0,4,48.15678794,-103.6280005
United States of America,Paso Robles,0.0,4,35.6265967,-120.6899823
United States of America,Temple,0.0,6,31.10209251,-97.36300826
United States of America,Bridgeport,0.0,12,41.17997866,-73.19996118
United States of America,San Angelo,1.0,170,31.4640084,-100.4366966
United States of America,Prescott,0.0,25,34.59001914,-112.4477723
United States of America,Palm Coast,0.0,16,29.53800193,-81.22329574
United States of America,Wenatchee,0.0,34,47.42362856,-120.3090237
United States of America,Ardmore,0.0,4,34.1810777,-97.12940495
United States of America,Santa Fe,0.0,5,35.68692893,-105.9372394
United States of America,Flint,0.0,79,43.0128642,-83.68753809
United States of America,Huntington,0.0,47,38.41957867,-82.44528833
United States of America,Key West,0.0,8,24.55523114,-81.78274479
United States of America,Logan,0.0,20,41.73593955,-111.8335979
Canada,Oshawa,0.0,6,43.87999473,-78.84997807
United States of America,Tulare,0.0,6,36.20702639,-119.3441213
United States of America,Great Falls,0.0,6,47.50029055,-111.299987
United States of America,Bartlesville,0.0,6,36.74720013,-95.98058618
Turkey,Ankara,0.0,12,39.92723859,32.86439164
Uruguay,Montevideo,0.0,8,-34.85804157,-56.17105229
United States of America,Ames,0.0,34,42.05385297,-93.61972254
Canada,Yorkton,0.0,6,51.21706626,-102.4665469
Canada,Saint John,0.0,6,45.26704185,-66.07667505
United States of America,Lima,0.0,24,40.74287355,-84.10526453
Canada,Thunder Bay,0.0,18,48.44615013,-89.27497481
United States of America,Laramie,0.0,26,41.31136599,-105.5905681
United States of America,Saratoga Springs,0.0,12,43.08296328,-73.78501591
Hungary,Budapest,0.0,12,47.50000633,19.08332068
United States of America,Scranton,0.0,12,41.40929283,-75.66267908
United States of America,Lake Havasu City,0.0,4,34.49829348,-114.3082789
Philippines,Manila,0.0,10,14.60415895,120.9822172
Qatar,Doha,0.0,12,25.28655601,51.53296789
United States of America,Waukegan,0.0,16,42.36404075,-87.8447262
United States of America,Lewiston,0.0,6,44.10070477,-70.21525965
United States of America,Lewiston,0.0,6,46.41660992,-117.016589
China,Changsha,0.0,3,28.19996991,112.969993
United States of America,Parkersburg,0.0,4,39.26665875,-81.56164718
India,Mumbai,0.0,28,19.01699038,72.8569893
South Korea,Busan,0.0,4,35.09505292,129.0100476
United States of America,Ukiah,0.0,12,39.15423667,-123.2108621
Philippines,Cebu,0.0,12,10.31997601,123.9000752
Spain,Vigo,0.0,6,42.22001853,-8.729994549
United States of America,Brookings,0.0,4,44.30676455,-96.78803044
United Kingdom,Perth,0.0,4,56.40034161,-3.469979697
Pakistan,Karachi,0.0,6,24.86999229,66.99000891
United States of America,Tuscaloosa,0.0,4,33.22511538,-87.54417607
United States of America,Urbana,0.0,4,40.10999229,-88.20418746
Mexico,Celaya,0.0,2,20.53002464,-100.8000078
United States of America,La Grande,0.0,1,45.32468691,-118.0866012
New Zealand,New Plymouth,0.0,16,-39.0641931,174.0805265
Italy,Bologna,0.0,4,44.50042198,11.34002071
United States of America,Wahiawa,0.0,8,21.50309186,-158.0236209
Poland,Poznan,0.0,6,52.4057534,16.89993974
United States of America,Slidell,0.0,4,30.27495953,-89.78109379
United States of America,Richfield,0.0,6,38.77247703,-112.0832984
United States of America,Waco,0.0,12,31.54917116,-97.14638066
United States of America,Marquette,0.0,4,46.54673118,-87.40658757
Hong Kong S.A.R.,Hong Kong,0.0,10,22.3049809,114.1850093
Brazil,Joinville,0.0,10,-26.31995807,-48.83994938
United Kingdom,Coventry,0.0,8,52.42040367,-1.499996583
United States of America,Superior,0.0,5,46.72124249,-92.10389775
United States of America,Homestead,0.0,18,25.46830202,-80.47778569
United States of America,Benton Harbor,0.0,21,42.11663983,-86.45419092
Indonesia,Medan,0.0,6,3.579973978,98.65004024
United States of America,Gulfport,0.0,6,30.3675637,-89.09276371
United States of America,Wasilla,0.0,22,61.58173077,-149.439442
Brazil,Campinas,0.0,18,-22.90001178,-47.10002975
Canada,Gander,0.0,4,48.94999534,-54.54998845
Canada,Orangeville,1.0,12,43.91707257,-80.08333948
United States of America,Glenwood Springs,0.0,18,39.54658999,-107.3247
United States of America,Vicksburg,0.0,10,32.3524813,-90.8777452
United States of America,Terre Haute,0.0,12,39.46664654,-87.41387394
Mexico,Tijuana,2.0,10,32.50001752,-117.079996
Switzerland,Bern,,1,46.91668276,7.466975462
Brazil,Ponta Grossa,0.0,1,-25.09000731,-50.16004968
Taiwan,Taichung,0.0,10,24.15207745,120.681667
United States of America,Iron Mountain,0.0,15,45.82246014,-88.06409265
Vietnam,Ho Chi Minh City,0.0,10,10.78002545,106.6950272
Canada,Sudbury,0.0,6,46.49998985,-80.96664474
United States of America,Flagstaff,0.0,12,35.19809572,-111.6505083
Kuwait,Kuwait,0.0,8,29.36971763,47.97830115
United States of America,Carbondale,0.0,10,37.72683026,-89.22024947
United States of America,Cape Girardeau,0.0,10,37.30582237,-89.51808659
Canada,Moose Jaw,0.0,4,50.39998435,-105.5500021
United States of America,Hutchinson,0.0,6,38.06549176,-97.92349085
United States of America,Roseburg,0.0,4,43.21843304,-123.3560987
Nepal,Kathmandu,2.0,18,27.71669191,85.31664221
Canada,Cornwall,0.0,6,45.01705711,-74.73333012
Bangladesh,Dhaka,0.0,4,23.72305971,90.40857947
Bermuda,Hamilton,0.0,1,32.29419029,-64.78393742
Czech Republic,Brno,0.0,6,49.20039349,16.60998328
Malaysia,Kuching,0.0,4,1.529969909,110.3299991
United States of America,Paducah,0.0,6,37.08371706,-88.60000309
United States of America,Fairbanks,0.0,22,64.83698427,-147.7106586
United States of America,Bryan,0.0,4,30.67418581,-96.36968388
United Arab Emirates,Sharjah,0.0,4,25.37138287,55.40647823
India,Pune,0.0,12,18.53001752,73.85000362
Sri Lanka,Colombo,0.0,14,6.931965758,79.85775061
India,Indore,0.0,4,22.71505922,75.86502274
United Kingdom,Luton,0.0,6,51.88035911,-0.420010825
Lebanon,Beirut,0.0,24,33.87197512,35.50970821
United Arab Emirates,Abu Dhabi,0.0,20,24.46668357,54.36659338
United States of America,Walla Walla,0.0,12,46.06515851,-118.3418828
United States of America,Alamogordo,0.0,4,32.89947634,-105.9597187
Canada,Belleville,0.0,12,44.16666974,-77.38334924
South Africa,Durban,0.0,6,-29.865013,30.98001054
Brazil,Sorocaba,0.0,6,-23.49000161,-47.46998132
Turkey,Antalya,0.0,8,36.88998212,30.69997595
Pakistan,Islamabad,0.0,13,33.69999595,73.16663448
Mexico,Monterrey,0.0,4,25.66999514,-100.3299848
Canada,North Bay,0.0,34,46.30000205,-79.44999313
Mexico,Guanajuato,0.0,3,21.02040814,-101.2799785
United States of America,Vernon,0.0,6,34.15105369,-99.29038416
India,Ahmedabad,0.0,16,23.03005292,72.58000362
Mexico,Guadalajara,0.0,2,20.67001609,-103.3300342
Oman,Muscat,0.0,5,23.61332481,58.59331213
Finland,Tampere,0.0,12,61.5000045,23.75001257
France,Bordeaux,0.0,16,44.85001304,-0.595013063
Maldives,Male,0.0,11,4.16670819,73.49994747
Turkey,Izmir,0.0,12,38.43614968,27.15179401
Romania,Iasi,0.0,6,47.16834698,27.57494706
United States of America,Beaver Falls,0.0,6,40.75194277,-80.31942326
Germany,Freiburg,0.0,4,48.00041506,7.869948281
United States of America,Hobbs,0.0,6,32.71261436,-103.1406143
United States of America,Moab,0.0,6,38.57370363,-109.5491895
Georgia,Tbilisi,0.0,6,41.72500999,44.79079545
Canada,Kindersley,0.0,6,51.46697349,-109.1332976
India,Gurgaon,0.0,4,28.45000633,77.01999101
United States of America,Hays,0.0,10,38.87936973,-99.322191
Zimbabwe,Harare,0.0,4,-17.81778969,31.04470943
Chile,Temuco,0.0,6,-38.73000161,-72.57999903
United Kingdom,Exeter,0.0,4,50.70040529,-3.529950197
United Kingdom,Dundee,0.0,12,56.47038902,-3.000008384
Canada,Prince George,0.0,10,53.91666892,-122.7666515
Turkey,Kayseri,0.0,6,38.73495994,35.49001949
Mexico,Hermosillo,0.0,6,29.09888145,-110.954065
United Kingdom,Peterborough,0.0,4,52.58041974,-0.249995363
Malaysia,Bintulu,0.0,4,3.16640749,113.0359838
France,Grenoble,0.0,4,45.18038047,5.720001992
South Africa,Benoni,0.0,4,-26.14958087,28.32993974
France,Rennes,0.0,18,48.10002138,-1.670012046
Uganda,Kampala,0.0,6,0.316658955,32.58332353
Cyprus,Nicosia,0.0,6,35.16667645,33.36663489
Norway,Stavanger,0.0,11,58.97000389,5.680004434
Belgium,Hasselt,0.0,6,50.96400317,5.483997561
Germany,Dortmund,0.0,6,51.52996706,7.450025593
Italy,Verona,0.0,6,45.44039044,10.99001623
Slovakia,Bratislava,0.0,14,48.15001833,17.11698075
Serbia,Novi Sad,0.0,4,45.2503762,19.84994055
United Kingdom,Middlesbrough,0.0,4,54.58037518,-1.230013063
Turkey,Mugla,0.0,2,37.21637046,28.36389115
Finland,Turku,0.0,6,60.4538668,22.25496171
United States of America,Rhinelander,0.0,6,45.63991315,-89.41207239
India,Chandigarh,0.0,4,30.71999697,76.78000565
Pakistan,Faisalabad,0.0,6,31.40998069,73.10999711
Poland,Szczecin,0.0,4,53.42039431,14.53000688
India,Ludhiana,0.0,6,30.92776206,75.87225745
Latvia,Riga,0.0,12,56.95002382,24.09996537
Spain,Valladolid,0.0,2,41.65000165,-4.750030763
Germany,Dresden,0.0,6,51.04997052,13.75000281
United States of America,Spencer,0.0,10,43.14528505,-95.14717452
Belarus,Minsk,0.0,4,53.89997744,27.56662716
United States of America,Vernal,0.0,6,40.45539756,-109.5280022
United States of America,Tillamook,0.0,27,45.45524742,-123.8425031
United States of America,Atlantic City,0.0,19,39.36463727,-74.4233232
Namibia,Okahandja,0.0,4,-21.97960285,16.91001664
Canada,Stephenville,0.0,6,48.55040733,-58.56656498
Spain,Cadiz,0.0,6,36.53499086,-6.225005332
Romania,Brasov,0.0,6,45.64753542,25.6071602
Germany,Braunschweig,0.0,4,52.24997479,10.5000203
Lithuania,Kaunas,0.0,12,54.95040428,23.88003048
South Korea,Changwon,0.0,16,35.21910219,128.583562
Sweden,Karlskrona,0.0,6,56.20300219,15.29600461
Mexico,Monclova,0.0,8,26.89999758,-101.4199958
Brazil,Barra Mansa,0.0,6,-22.56003253,-44.1699502
Italy,Treviso,0.0,6,45.67001467,12.24001745
Peru,Trujillo,0.0,6,-8.120035381,-79.01996769
Spain,Huelva,0.0,6,37.25037355,-6.929949383
Belize,Belmopan,0.0,6,17.25203351,-88.767073
Pakistan,Bahawalpur,0.0,6,29.38997479,71.67499426
Pakistan,Gujrat,0.0,6,32.5799868,74.08001542
Canada,Flin Flon,0.0,6,54.76659121,-101.8833008
Pakistan,Quetta,0.0,6,30.22000165,67.02499385
United States of America,Mason City,0.0,6,43.15401837,-93.20083338
Mexico,Manzanillo,0.0,6,19.04958662,-104.3230851
Mexico,Villahermosa,0.0,6,17.99997235,-92.89997319
France,Dijon,0.0,6,47.33040428,5.030018268
Swaziland,Mbabane,1.0,6,-26.31665078,31.13333451
Romania,Constanta,0.0,6,44.20266237,28.60997432
India,Moradabad,0.0,6,28.8417912,78.75678422
China,Weifang,0.0,4,36.7204059,119.1001098
United States of America,Goodland,0.0,4,39.34848838,-101.7110374
Argentina,Resistencia,0.0,4,-27.45999184,-58.99002751
Mexico,Chihuahua,0.0,4,28.64498151,-106.0849823
Italy,Udine,0.0,4,46.07001609,13.2400081
Germany,Schwerin,0.0,4,53.63330408,11.41669861
Canada,Meadow Lake,0.0,4,54.13011843,-108.4347356
India,Patiala,0.0,4,30.32040895,76.38499101
Norway,Haugesund,0.0,4,59.4119149,5.277496703
South Africa,Klerksdorp,0.0,4,-26.88002724,26.62001827
