country,city,clicks,views,lat,lng
United States of America,Los Angeles,336.0,208490,33.98997825,-118.1799805
United States of America,New York,572.0,300769,40.74997906,-73.98001693
United States of America,Chicago,295.0,195321,41.82999066,-87.75005497
United States of America,Seattle,235.0,143837,47.57000205,-122.339985
United States of America,Portland,230.0,139371,43.67216158,-70.2455274
United States of America,Portland,230.0,139371,45.52002382,-122.6799901
United States of America,San Francisco,163.0,104303,37.74000775,-122.4599777
United States of America,Denver,191.0,107997,39.73918805,-104.984016
United States of America,Houston,239.0,112768,29.81997438,-95.33997929
United States of America,Philadelphia,183.0,106774,39.99997316,-75.16999597
United States of America,Minneapolis,144.0,91745,44.97997927,-93.25178634
United States of America,Austin,126.0,88635,30.26694969,-97.74277836
Canada,Toronto,155.0,79531,43.69997988,-79.42002079
United States of America,San Diego,137.0,76948,32.82002382,-117.1799899
United States of America,Atlanta,157.0,88895,33.83001385,-84.39994938
United States of America,San Jose,138.0,66871,37.29998293,-121.8499891
United States of America,Phoenix,115.0,61243,33.53997988,-112.0699917
United States of America,Arlington,82.0,49829,32.68476076,-97.02023849
United States of America,Miami,123.0,53778,25.7876107,-80.22410608
United States of America,Charlotte,103.0,54524,35.20499453,-80.83003809
United States of America,Dallas,138.0,64346,32.82002382,-96.84001693
United States of America,Las Vegas,115.0,47419,35.59701194,-105.2225027
United States of America,Las Vegas,115.0,47419,36.20999778,-115.2200061
United States of America,Oakland,71.0,47701,37.76892071,-122.2211034
United States of America,Columbus,87.0,57096,32.47043276,-84.98001734
United States of America,Columbus,87.0,57096,39.97997438,-82.9900096
Singapore,Singapore,35.0,29876,1.293033466,103.8558207
United States of America,Pittsburgh,99.0,50751,40.4299986,-79.99998539
United States of America,Sacramento,69.0,41732,38.57502138,-121.4700381
United States of America,Louisville,92.0,42362,38.22501691,-85.74870427
United States of America,Salt Lake City,74.0,43493,40.7750163,-111.9300519
United States of America,Boston,96.0,67213,42.32996014,-71.07001367
United States of America,Madison,96.0,45046,43.07301556,-89.40111699
United States of America,Tucson,91.0,41120,32.20499676,-110.8899862
United States of America,Albuquerque,94.0,40385,35.10497479,-106.6413308
United States of America,Richmond,79.0,40379,39.82889833,-84.89028121
United States of America,Richmond,79.0,40379,37.55001935,-77.449986
United States of America,San Antonio,76.0,38144,29.48733319,-98.50730534
United States of America,Baltimore,98.0,50806,39.29999005,-76.61998499
United States of America,Orlando,89.0,37109,28.50997683,-81.38003036
United States of America,Rochester,79.0,43228,44.02205324,-92.46968937
United States of America,Rochester,79.0,43228,43.17042564,-77.61994979
Canada,Vancouver,61.0,31699,49.27341658,-123.1216442
United States of America,Tampa,59.0,34396,27.94698793,-82.45862085
United States of America,Indianapolis,51.0,37157,39.74998842,-86.17004806
United States of America,Cleveland,79.0,42039,41.4699868,-81.69499821
United States of America,Cincinnati,60.0,36195,39.16188479,-84.45692265
United States of America,Springfield,81.0,32880,44.05194806,-122.9780339
United States of America,Springfield,81.0,32880,42.12002464,-72.57999903
United States of America,Springfield,81.0,32880,39.92000388,-83.799986
United States of America,Springfield,81.0,32880,39.82000999,-89.65001652
United States of America,Springfield,81.0,32880,37.18001609,-93.31999923
Canada,Calgary,87.0,29587,51.08299176,-114.0799982
United States of America,Raleigh,53.0,34870,35.81878135,-78.64469344
United States of America,Columbia,60.0,30791,35.61499534,-87.03526656
United States of America,Columbia,60.0,30791,38.95207847,-92.33390955
United States of America,Columbia,60.0,30791,34.0399752,-80.89998214
United States of America,Alexandria,53.0,29929,38.82043276,-77.09998153
United States of America,Alexandria,53.0,29929,31.31109784,-92.44501388
United States of America,Milwaukee,51.0,35133,43.05265505,-87.91996708
United States of America,Kansas City,57.0,33931,39.11358052,-94.63014638
United States of America,Kansas City,57.0,33931,39.10708851,-94.60409422
United States of America,Jacksonville,53.0,23554,34.75432436,-77.43055567
United States of America,Jacksonville,53.0,23554,30.33002077,-81.66998682
United States of America,Honolulu,43.0,21780,21.30687644,-157.8579979
United States of America,Nashville,36.0,28511,36.16997438,-86.77998499
United States of America,Lexington,46.0,23345,38.05001467,-84.50002079
United States of America,Fort Lauderdale,45.0,25206,26.13606488,-80.14178552
United States of America,Omaha,58.0,27452,41.24000083,-96.00999007
United States of America,Buffalo,44.0,25138,42.87997825,-78.88000208
Canada,Ottawa,50.0,24309,45.4166968,-75.7000153
United States of America,Wilmington,40.0,21859,39.74626772,-75.54689803
United States of America,Wilmington,40.0,21859,34.22551943,-77.94502039
United States of America,Colorado Springs,34.0,20815,38.86296246,-104.7919863
United States of America,Durham,40.0,24611,35.99995892,-78.91999964
United States of America,Long Beach,43.0,21507,33.78696739,-118.1580439
Ireland,Dublin,48.0,17836,53.33306114,-6.248905682
United States of America,Aurora,32.0,20695,39.69585736,-104.808497
United States of America,Aurora,32.0,20695,41.76539512,-88.29999557
United States of America,Irvine,31.0,19118,33.68041058,-117.8299502
Canada,Edmonton,46.0,20175,53.55002464,-113.4999819
United States of America,Eugene,37.0,21200,44.05001019,-123.1000161
United States of America,Newark,50.0,20322,40.70042137,-74.17000533
United States of America,Dayton,38.0,21374,39.750376,-84.19998743
United States of America,Ann Arbor,29.0,20570,42.30037539,-83.71999089
United States of America,Glendale,35.0,17804,33.58194114,-112.1958238
New Zealand,Auckland,22.0,6874,-36.850013,174.7649808
United States of America,Birmingham,32.0,20290,33.53000633,-86.82499516
United States of America,Pasadena,32.0,18241,29.66086265,-95.14774296
United States of America,Pasadena,32.0,18241,34.16038129,-118.1388719
United States of America,Berkeley,55.0,19653,37.87390139,-122.271152
United Kingdom,London,60.0,36561,51.49999473,-0.116721844
United States of America,Vancouver,47.0,18837,45.63030133,-122.6399925
United States of America,Virginia Beach,34.0,18990,36.85321433,-75.97831873
United States of America,Knoxville,27.0,15953,35.97001243,-83.92003036
Canada,Winnipeg,31.0,15743,49.88298749,-97.16599186
United States of America,Spokane,31.0,17024,47.66999595,-117.4199494
United States of America,New Orleans,26.0,20170,29.99500246,-90.03996688
United States of America,Concord,36.0,15927,43.20807192,-71.53804712
United States of America,Scottsdale,45.0,18486,33.69234784,-111.8680402
United States of America,Tacoma,27.0,15167,47.21131594,-122.5150131
United States of America,Grand Rapids,33.0,17890,42.96371991,-85.66994938
United States of America,Riverside,47.0,15033,33.94194501,-117.3980386
United States of America,Santa Barbara,33.0,17292,34.43498985,-119.7199899
United States of America,Gainesville,22.0,16511,29.65138002,-82.32503727
United States of America,Oklahoma City,32.0,18005,35.47004295,-97.51868351
United States of America,Salem,37.0,14620,42.5224989,-70.88309175
United States of America,Salem,37.0,14620,44.92807029,-123.0238967
United States of America,Marietta,40.0,14980,33.95561342,-84.54324813
United States of America,Fayetteville,34.0,13534,36.06297833,-94.15720911
United States of America,Fayetteville,34.0,13534,35.06293601,-78.88359359
United States of America,Decatur,32.0,13657,39.8407064,-88.95473596
United States of America,Anchorage,39.0,14464,61.21996991,-149.9002149
United States of America,Boise,28.0,17750,43.60859011,-116.2274899
United States of America,Boulder,29.0,15534,40.03844627,-105.246093
United States of America,Memphis,26.0,14745,35.1199868,-89.99999516
United States of America,Lancaster,26.0,13497,39.71921511,-82.6053044
United States of America,Lancaster,26.0,13497,40.03777447,-76.30576644
United States of America,Lancaster,26.0,13497,34.69804873,-118.135823
United States of America,Lincoln,25.0,16142,40.81997479,-96.68000086
United States of America,Mesa,35.0,14371,33.42391461,-111.7360844
United States of America,Santa Cruz,39.0,16769,36.97194629,-122.0263904
United States of America,Charlottesville,33.0,14500,38.02918907,-78.47692591
United States of America,Detroit,28.0,16096,42.32996014,-83.08005579
United States of America,Albany,40.0,18672,44.62049217,-123.086942
United States of America,Albany,40.0,18672,31.57873008,-84.15582992
United States of America,Albany,40.0,18672,42.67001691,-73.81994918
United States of America,Greensboro,27.0,13079,36.07000633,-79.80002344
United States of America,Farmington,29.0,13119,36.75415061,-108.1860944
United States of America,Bloomington,28.0,13748,40.48459475,-88.99359664
United States of America,Bloomington,28.0,13748,39.16565716,-86.52640873
United States of America,Jackson,20.0,13350,35.61486615,-88.81389185
United States of America,Jackson,20.0,13350,32.29881533,-90.18499679
United States of America,Reno,41.0,14780,39.52997601,-119.8200096
United States of America,Greenville,24.0,14244,33.41037539,-91.06168746
United States of America,Greenville,24.0,14244,34.85292299,-82.3941545
United States of America,Greenville,24.0,14244,35.61287661,-77.3666836
United States of America,Medford,30.0,13166,42.32662701,-122.8744227
United States of America,Canton,20.0,12932,40.79886497,-81.37863509
United States of America,Charleston,29.0,14945,32.79237693,-79.99210474
United States of America,Charleston,29.0,14945,38.34973798,-81.63272811
United States of America,Auburn,27.0,12530,32.60970074,-85.48083948
United States of America,Olympia,20.0,13747,47.03804486,-122.899434
Canada,Victoria,25.0,13683,48.43328269,-123.3500009
United States of America,Bellingham,28.0,13856,48.76013613,-122.4869269
United States of America,Burlington,21.0,13213,40.80793418,-91.11276961
United States of America,Burlington,21.0,13213,44.47579816,-73.21246688
United States of America,Santa Rosa,42.0,14993,38.45040367,-122.6999889
United States of America,Fresno,34.0,11606,36.7477169,-119.7729841
United States of America,Lafayette,20.0,12457,40.41720868,-86.87824772
United States of America,Lafayette,20.0,12457,30.19997703,-92.01994938
United States of America,Sarasota,25.0,12075,27.33612083,-82.53078699
United States of America,Tallahassee,14.0,14202,30.44998761,-84.28003422
United States of America,Athens,13.0,11825,33.96129783,-83.3780221
United States of America,Des Moines,16.0,13439,41.57998008,-93.61998092
United States of America,San Mateo,13.0,10627,37.55691815,-122.3130616
United States of America,Naples,37.0,10085,26.14205935,-81.79499211
United States of America,Syracuse,20.0,12211,43.04999371,-76.15001367
United States of America,Watertown,20.0,11254,43.97515688,-75.91106185
Canada,London,18.0,9456,42.9699986,-81.24998661
United States of America,Akron,15.0,11970,41.07039878,-81.51999597
Malaysia,Kuala Lumpur,15.0,6566,3.166665872,101.6999833
United States of America,Asheville,16.0,9862,35.60119773,-82.55414474
United States of America,Manchester,8.0,10154,42.99599184,-71.45528731
Japan,Tokyo,5.0,3371,35.68501691,139.7514074
United States of America,Belleville,16.0,10803,38.52515362,-90.0002277
United Kingdom,Glasgow,18.0,9096,55.87440472,-4.250707236
United States of America,Tulsa,21.0,13802,36.12000327,-95.93002079
Canada,Kitchener,15.0,7552,43.44999514,-80.50000655
United States of America,Peoria,29.0,11467,40.69998212,-89.67004114
Spain,Granada,0.0,8941,37.16497825,-3.585011435
United States of America,Trenton,24.0,12520,40.2169625,-74.74335535
United States of America,Astoria,18.0,8148,46.18838096,-123.8299974
United States of America,West Palm Beach,27.0,10003,26.74501996,-80.12362126
United States of America,Duluth,22.0,11926,46.78333173,-92.10637822
United States of America,Santa Fe,22.0,11379,35.68692893,-105.9372394
Canada,Halifax,14.0,7792,44.65002525,-63.60000452
United States of America,Wichita,17.0,10813,37.71998313,-97.32998702
United States of America,El Paso,27.0,9276,31.77998395,-106.5099952
United States of America,Baton Rouge,20.0,10239,30.45794578,-91.14015812
United States of America,Lansing,20.0,11538,42.73352724,-84.54673629
United States of America,Fort Wayne,6.0,7588,41.08039817,-85.12998234
United States of America,Carlsbad,9.0,8905,32.420565,-104.2282998
United States of America,Laurel,12.0,8365,31.69737917,-89.1392725
United States of America,Dover,15.0,7295,39.15808657,-75.524703
United States of America,Everett,20.0,9084,47.9604175,-122.1999677
United States of America,Roanoke,16.0,7033,37.27119916,-79.94161686
Indonesia,Jakarta,7.0,6188,-6.174417705,106.8294376
United States of America,Monroe,13.0,7459,32.50960349,-92.11919397
United States of America,Fort Collins,16.0,9336,40.56068829,-105.0588693
United States of America,Providence,21.0,11231,41.82110231,-71.4149797
United States of America,Worcester,22.0,9842,42.27042889,-71.80002079
United States of America,Evanston,10.0,10342,42.04834943,-87.69995467
United States of America,Dublin,14.0,8475,32.53745709,-82.91828272
United Kingdom,Manchester,22.0,7888,53.50041526,-2.247987103
United States of America,Rockford,16.0,6394,42.26970542,-89.06969019
United States of America,Stockton,29.0,7789,37.95813397,-121.289739
United States of America,Roswell,14.0,6609,33.39453656,-104.5224679
United States of America,Oceanside,17.0,7500,33.2204645,-117.3349675
United States of America,Stamford,23.0,8991,41.05334556,-73.53919112
United States of America,Ithaca,12.0,8842,42.44057355,-76.4969434
United Kingdom,Birmingham,20.0,9855,52.47497398,-1.919996787
United States of America,Marion,12.0,6715,40.55833701,-85.65917485
United States of America,York,12.0,6776,39.96292116,-76.72804041
United States of America,Norfolk,13.0,8411,42.02871238,-97.43359827
United States of America,Norfolk,13.0,8411,36.84995872,-76.28000574
United States of America,Florence,6.0,6452,34.79969627,-87.67724288
United States of America,Florence,6.0,6452,34.19567629,-79.76279057
United States of America,Bakersfield,8.0,7870,35.36997154,-119.0199809
United States of America,Bend,17.0,8699,44.071921,-121.3099962
United States of America,Cape Coral,21.0,6724,26.60290977,-81.97968368
South Korea,Seoul,1.0,3013,37.5663491,126.999731
United States of America,Missoula,17.0,8829,46.87224103,-113.9930526
United States of America,Fredericksburg,12.0,6186,38.30351341,-77.46078638
Thailand,Bangkok,2.0,4943,13.74999921,100.5166447
Australia,Melbourne,3.0,720,-37.82003131,144.9750162
Canada,Saskatoon,12.0,5670,52.17003135,-106.6699854
Canada,Hamilton,17.0,6781,43.24998151,-79.82999577
United States of America,Schenectady,10.0,5952,42.81458173,-73.93996769
United States of America,Little Rock,22.0,9755,34.73608258,-92.33109318
United States of America,San Marcos,21.0,7318,29.88307131,-97.94111251
United States of America,Kalamazoo,7.0,6384,42.29215883,-85.58718958
United States of America,Brunswick,11.0,5667,31.1496865,-81.49165145
Jamaica,Kingston,7.0,5453,17.97707662,-76.76743371
United States of America,Huntsville,14.0,7047,30.72376935,-95.55058659
United States of America,Huntsville,14.0,7047,34.71995953,-86.60999536
United States of America,Bristol,10.0,6204,36.61152366,-82.17600244
Australia,Sydney,0.0,609,-33.92001097,151.1851798
Chile,Santiago,11.0,6107,-33.45001382,-70.66704085
United States of America,Toledo,11.0,8070,41.67002626,-83.57997359
United States of America,New Haven,14.0,8949,41.33038291,-72.90000533
United States of America,Danville,5.0,5829,36.58625388,-79.39531946
United States of America,Harrisburg,14.0,7769,40.27359987,-76.88474919
United States of America,Leesburg,13.0,4733,28.81050112,-81.88333297
United States of America,Cedar Rapids,20.0,8169,41.96998212,-91.66002303
United States of America,Lawrence,13.0,7744,38.95975242,-95.25522994
United States of America,Winchester,10.0,5242,39.1787313,-78.16663477
United States of America,Erie,9.0,6437,42.12992067,-80.08499313
United States of America,Allentown,13.0,6157,40.59998822,-75.50002751
United States of America,Clarksville,11.0,4465,36.5300816,-87.35943282
United States of America,Chattanooga,17.0,7329,35.06998985,-85.25000086
France,Paris,16.0,12546,48.86669293,2.333335326
Australia,Brisbane,0.0,778,-27.45503091,153.0350927
United States of America,Newport,9.0,6545,41.49039899,-71.31335799
United States of America,Chico,13.0,7090,39.72862022,-121.8363982
United States of America,Sioux Falls,15.0,6102,43.54998903,-96.7299978
United States of America,Augusta,11.0,6846,33.46081158,-81.98498051
United States of America,Augusta,11.0,6846,44.31056276,-69.77998906
Germany,Berlin,20.0,10275,52.52181866,13.40154862
United States of America,Davenport,9.0,4786,41.55398684,-90.58753036
United States of America,Sanford,10.0,4666,28.78995974,-81.27998478
United States of America,Denton,11.0,6085,33.21576194,-97.12883651
United States of America,Murfreesboro,10.0,5441,35.84596315,-86.39026717
United States of America,Eureka,12.0,7397,40.80222394,-124.1474974
United States of America,Covington,8.0,4733,39.0840084,-84.50859908
United States of America,Savannah,10.0,6760,32.02110618,-81.10999516
United States of America,Iowa City,14.0,7465,41.66108624,-91.52997929
United States of America,Pensacola,16.0,5683,30.42112632,-87.21693506
United States of America,Lynchburg,8.0,5094,37.4136194,-79.14246668
United States of America,Corvallis,5.0,6033,44.57235557,-123.2799793
United States of America,Annapolis,17.0,6377,38.9783301,-76.49249923
Canada,Regina,15.0,5121,50.45003298,-104.6170099
United States of America,Appleton,11.0,5360,44.26867902,-88.40050623
United States of America,Mansfield,10.0,5119,40.75832481,-82.51554244
United States of America,Hartford,7.0,7305,41.77002016,-72.67996708
United States of America,Midland,16.0,5066,32.030718,-102.0974996
United States of America,Melbourne,10.0,5612,28.08331036,-80.60832035
United States of America,Whittier,13.0,5345,60.78415672,-148.6776797
United States of America,Traverse City,7.0,4898,44.76844179,-85.62217452
United States of America,State College,11.0,6102,40.79372316,-77.8602452
United States of America,Hampton,7.0,4594,37.03002525,-76.34994979
United States of America,Bozeman,15.0,5674,45.68009157,-111.0378325
Taiwan,Taipei,4.0,2845,25.03583333,121.5683333
Netherlands,Amsterdam,27.0,9549,52.34996869,4.916640176
United Kingdom,Liverpool,13.0,5615,53.41600181,-2.917997886
United States of America,Montgomery,9.0,6272,32.36160219,-86.27918868
Barbados,Bridgetown,6.0,3245,13.10200258,-59.61652674
United States of America,Modesto,13.0,5080,37.65541343,-120.9899899
United Kingdom,Edinburgh,9.0,6076,55.94832786,-3.219090618
United States of America,Utica,5.0,4067,43.10117922,-75.23306706
United States of America,Topeka,7.0,5638,39.05000531,-95.66998499
Norway,Oslo,27.0,8742,59.91669029,10.74997921
New Zealand,Wellington,9.0,1798,-41.29997394,174.7832743
United States of America,Spring Hill,4.0,3819,28.47894513,-82.54771102
Spain,Madrid,11.0,6330,40.40002626,-3.683351686
United States of America,Quincy,10.0,4446,39.9359719,-91.40972823
United Kingdom,Belfast,9.0,3977,54.60001223,-5.960034425
United States of America,Jonesboro,7.0,3733,35.84257835,-90.70416406
Australia,Perth,1.0,1242,-31.95501463,115.8399987
United States of America,Johnson City,10.0,4250,36.31332481,-82.35361434
United States of America,Youngstown,9.0,3552,41.09969932,-80.64973902
United States of America,Meridian,15.0,4794,32.36418601,-88.70361434
United States of America,Norman,12.0,4799,35.22791302,-97.34414636
United States of America,San Luis Obispo,13.0,4324,35.28318097,-120.6585889
United Kingdom,Bristol,9.0,7024,51.44999778,-2.583315472
United States of America,Miami Beach,8.0,4502,25.80991953,-80.13178111
United States of America,Mobile,14.0,4749,30.68002525,-88.04998499
United States of America,Fargo,8.0,5756,46.8772278,-96.7894257
United States of America,Myrtle Beach,11.0,3680,33.68891136,-78.8869784
United States of America,Billings,9.0,4385,45.78830202,-108.5400004
United States of America,Monterey,13.0,4566,36.6002582,-121.8935781
New Zealand,Christchurch,6.0,1662,-43.53503131,172.6300207
United States of America,Lubbock,20.0,4954,33.58000327,-101.8799677
United States of America,Palm Springs,18.0,5802,33.77735557,-116.5330526
United States of America,Huntington,10.0,4239,38.41957867,-82.44528833
Sweden,Stockholm,23.0,7024,59.35075995,18.09733473
United States of America,Independence,13.0,4080,39.09111391,-94.41528121
United States of America,Salisbury,6.0,3755,35.67078005,-80.4744784
United States of America,Green Bay,7.0,4741,44.5299809,-88.00001388
Canada,Windsor,13.0,3930,44.98059938,-64.12911951
Canada,Windsor,13.0,3930,42.33329327,-83.03334029
Canada,Kingston,7.0,3426,44.23371991,-76.48330082
Canada,Barrie,11.0,3752,44.38376243,-79.7000037
Peru,Lima,5.0,4032,-12.04801268,-77.05006209
Greece,Athens,12.0,6785,37.98332623,23.73332108
United States of America,Redding,6.0,4324,40.58704327,-122.3905762
United States of America,Kissimmee,9.0,4054,28.29205731,-81.4077806
United States of America,Ocala,8.0,3945,29.1873515,-82.14026819
United States of America,Evansville,10.0,4500,37.97469627,-87.5558291
United States of America,Corpus Christi,5.0,4207,27.74281435,-97.40189478
United Kingdom,Leeds,10.0,5680,53.83000755,-1.580017539
United States of America,Helena,4.0,5033,46.59274904,-112.035291
Portugal,Porto,0.0,2367,41.15000633,-8.620001263
Canada,Kelowna,9.0,4357,49.89998903,-119.4833118
Philippines,Quezon City,2.0,2811,14.6504352,121.0299662
United States of America,Vallejo,7.0,4374,38.11194887,-122.258052
United States of America,Eau Claire,3.0,3934,44.81135907,-91.49835331
United States of America,Anderson,5.0,3017,34.50374534,-82.6502629
United States of America,Salinas,10.0,3931,36.68221702,-121.6416555
United States of America,Hagerstown,2.0,2307,39.64164878,-77.72027958
United States of America,Metairie,6.0,4349,29.98386619,-90.15277653
United States of America,Kalispell,11.0,3998,48.19776735,-114.3159786
United States of America,Macon,7.0,3281,32.85038373,-83.63004806
United States of America,Bremerton,5.0,4254,47.57359552,-122.6420175
United States of America,Bowling Green,7.0,4012,41.37474713,-83.65139042
United States of America,Bowling Green,7.0,4012,36.99069948,-86.44364893
United States of America,Garden City,3.0,3452,37.97521303,-100.8640866
Puerto Rico,San Juan,16.0,3594,18.44002301,-66.12997929
United States of America,Ogden,8.0,3884,41.23237856,-111.9680341
United States of America,Vero Beach,7.0,3388,27.64225201,-80.39112431
United States of America,Juneau,7.0,4261,58.31412661,-134.419997
United States of America,Lowell,10.0,4405,42.63368837,-71.31669112
United States of America,Morgantown,4.0,4129,39.62981488,-79.95606043
United States of America,Clovis,11.0,3329,34.40506919,-103.2047706
United States of America,Lakeville,3.0,2896,44.65010276,-93.24251042
Portugal,Lisbon,10.0,4530,38.72272288,-9.144866305
United Kingdom,Nottingham,6.0,5158,52.97034426,-1.170016725
United States of America,Poughkeepsie,10.0,3266,41.70023114,-73.92141585
United States of America,Ontario,10.0,2896,44.02662661,-116.9618895
United States of America,Racine,9.0,3352,42.72771364,-87.81183415
United States of America,Elgin,8.0,3649,42.03946108,-88.28991866
United States of America,Richland,6.0,2870,46.29181134,-119.2911013
Canada,Moncton,6.0,2748,46.08334861,-64.76667749
United States of America,Saginaw,4.0,2930,43.4194802,-83.95082951
United States of America,Conway,5.0,3414,35.09128054,-92.4513184
United States of America,South Bend,3.0,3430,41.68330711,-86.25001734
United Kingdom,Sheffield,8.0,3906,53.36667666,-1.499996583
United States of America,Ambler,4.0,3135,67.08648521,-157.8514091
United States of America,Saratoga Springs,7.0,2703,43.08296328,-73.78501591
United States of America,La Crosse,5.0,3564,43.80136904,-91.23942855
United States of America,New Albany,4.0,2516,38.3108773,-85.82128382
United States of America,Lewiston,3.0,2481,44.10070477,-70.21525965
United States of America,Lewiston,3.0,2481,46.41660992,-117.016589
Vietnam,Ho Chi Minh City,5.0,2012,10.78002545,106.6950272
United States of America,Shawnee,3.0,3600,35.34278973,-96.93378382
United States of America,Muskegon,5.0,2433,43.23458193,-86.24836369
United States of America,Palm Coast,13.0,2971,29.53800193,-81.22329574
Dominican Republic,Santo Domingo,5.0,2735,18.47007285,-69.90008508
United States of America,Waukesha,9.0,4058,43.0116498,-88.23136926
Turkey,Istanbul,5.0,6725,41.10499615,29.01000159
Spain,Barcelona,14.0,5143,41.38329958,2.183370319
United States of America,Janesville,3.0,2472,42.68262596,-89.02157943
United States of America,Bridgeport,12.0,2913,41.17997866,-73.19996118
United States of America,Great Falls,9.0,2533,47.50029055,-111.299987
Canada,Fredericton,2.0,2969,45.94999758,-66.63330774
United States of America,Urbana,10.0,4515,40.10999229,-88.20418746
United States of America,Spartanburg,7.0,2918,34.94942873,-81.93227055
United States of America,Amarillo,9.0,3023,35.22998008,-101.8299966
United States of America,Freeport,6.0,2458,28.95948427,-95.35687748
United States of America,Bangor,3.0,2961,44.80115297,-68.77834477
United States of America,Powell,8.0,2449,44.75867495,-108.7584367
United States of America,Aberdeen,9.0,2283,46.97489626,-123.8143911
United States of America,Aberdeen,9.0,2283,45.46511761,-98.48640222
United States of America,Visalia,7.0,2777,36.32502952,-119.3160094
United States of America,Blacksburg,6.0,3048,37.22941876,-80.41419784
United States of America,Shreveport,5.0,3287,32.50001752,-93.77002344
United States of America,Grand Junction,4.0,3354,39.09385276,-108.5499998
United States of America,Stillwater,3.0,3304,36.13535118,-97.06829757
United States of America,Mankato,1.0,3012,44.16362083,-93.99915674
United States of America,Harrisonburg,3.0,2635,38.44942181,-78.86917586
United States of America,Santa Maria,11.0,3961,34.94012697,-120.4366386
Austria,Vienna,10.0,5438,48.20001528,16.36663896
Canada,Nanaimo,10.0,3211,49.14602021,-123.9342911
United States of America,Johnstown,7.0,2991,40.32708498,-78.92222172
United States of America,La Grange,9.0,2702,33.03647056,-85.03187464
United States of America,Tuscaloosa,4.0,2554,33.22511538,-87.54417607
United States of America,Yakima,6.0,3109,46.60223167,-120.5046965
United States of America,Binghamton,10.0,4079,42.09901817,-75.91832239
United States of America,Flagstaff,7.0,3197,35.19809572,-111.6505083
United States of America,Durango,4.0,2917,37.27564333,-107.8799891
United States of America,Bay City,7.0,2674,43.5944566,-83.88889531
United States of America,Bay City,7.0,2674,28.98111086,-95.96435978
United States of America,Killeen,2.0,2274,31.11728538,-97.72748214
United States of America,Kennewick,6.0,2648,46.21137697,-119.1360979
United States of America,Rock Hill,4.0,2401,34.94038535,-81.03000004
United States of America,Jamestown,5.0,2319,46.90601158,-98.70297815
United States of America,Jamestown,5.0,2319,42.09736452,-79.23553593
United States of America,Pueblo,7.0,1764,38.2803882,-104.6300066
United States of America,Cheyenne,7.0,3508,41.14000694,-104.8197107
Belgium,Brussels,17.0,6103,50.83331708,4.333316608
United States of America,Scranton,3.0,3014,41.40929283,-75.66267908
United Kingdom,Leicester,5.0,3345,52.62997744,-1.133248943
United States of America,Beaumont,7.0,2463,30.08626304,-94.10168278
Australia,Adelaide,0.0,406,-34.93498777,138.6000048
United States of America,Panama City,4.0,2360,30.15861005,-85.65527328
United States of America,Wheeling,7.0,2903,40.06431032,-80.72107833
United States of America,Provo,3.0,3049,40.24889854,-111.63777
United States of America,Frankfort,0.0,4165,38.2008065,-84.87335718
United States of America,Longview,2.0,2828,32.50053428,-94.74027429
United States of America,Longview,2.0,2828,46.13871991,-122.9369511
United States of America,Carbondale,8.0,3864,37.72683026,-89.22024947
United States of America,Las Cruces,5.0,3148,32.31261293,-106.7778083
United States of America,Montpelier,4.0,2772,44.25997154,-72.57581323
United States of America,Montpelier,4.0,2772,42.32262209,-111.2969123
United Kingdom,Cardiff,10.0,3090,51.49999473,-3.22500757
Argentina,Buenos Aires,5.0,3407,-34.60250161,-58.39753137
Canada,Sudbury,4.0,1703,46.49998985,-80.96664474
United States of America,Waterbury,2.0,2981,41.55000775,-73.05002202
United States of America,Council Bluffs,5.0,3209,41.26227338,-95.86080021
Bermuda,Hamilton,2.0,2265,32.29419029,-64.78393742
Philippines,Manila,4.0,1694,14.60415895,120.9822172
Italy,Rome,6.0,3872,41.89595563,12.48325842
United States of America,Rapid City,6.0,2524,44.08055096,-103.2305571
United States of America,Waterloo,2.0,2230,42.49315432,-92.34279789
United States of America,New Braunfels,4.0,2201,29.6978113,-98.12632084
United Kingdom,Oxford,8.0,3207,51.7704175,-1.249986004
Egypt,Cairo,3.0,3638,30.04996035,31.24996822
Canada,Peterborough,6.0,1646,44.29996909,-78.33326542
United Kingdom,Cambridge,9.0,3687,52.20039125,0.116623086
United States of America,Tyler,2.0,2716,32.35108604,-95.30078272
United States of America,Homestead,4.0,1837,25.46830202,-80.47778569
United States of America,Cumberland,2.0,2314,39.65317263,-78.76277409
Ireland,Cork,8.0,2198,51.89860089,-8.49577112
United States of America,Hilo,9.0,3988,19.69999778,-155.0900273
United States of America,Pittsfield,2.0,2186,42.44819582,-73.25982833
United States of America,Coral Gables,11.0,3969,25.71541872,-80.29107874
Germany,Munich,4.0,4229,48.12994204,11.57499345
United States of America,Wasilla,3.0,2752,61.58173077,-149.439442
United States of America,Ames,5.0,3417,42.05385297,-93.61972254
Romania,Bucharest,8.0,4727,44.4333718,26.09994665
Finland,Helsinki,14.0,6189,60.17556337,24.93412634
United States of America,Manhattan,7.0,2457,39.19402753,-96.59243514
United Kingdom,Aberdeen,6.0,2346,57.17039797,-2.079987021
United States of America,New London,3.0,2211,41.3555235,-72.10002832
China,Beijing,3.0,831,39.92889223,116.3882857
Canada,Thunder Bay,5.0,2367,48.44615013,-89.27497481
United Kingdom,Southampton,7.0,3706,50.90003135,-1.399976849
United States of America,Conroe,6.0,2070,30.31206321,-95.45586369
United States of America,Altoona,2.0,2171,40.51859784,-78.39496708
United States of America,Jefferson City,5.0,1967,38.57662335,-92.17332503
United States of America,Caldwell,4.0,2074,43.66096417,-116.6705378
United States of America,Bismarck,2.0,2747,46.80831728,-100.7833163
Serbia,Belgrade,4.0,2641,44.81864545,20.46799068
United States of America,Oshkosh,5.0,2727,44.02510215,-88.54251306
United States of America,Muncie,6.0,2239,40.19375979,-85.38637496
United States of America,Logan,6.0,2046,41.73593955,-111.8335979
United States of America,Aiken,6.0,1896,33.5494625,-81.72060388
United Kingdom,Brighton,8.0,3646,50.83034568,-0.169974407
United States of America,San Bernardino,1.0,2186,34.12038373,-117.3000342
United States of America,Prescott,3.0,2871,34.59001914,-112.4477723
United States of America,Battle Creek,4.0,1723,42.32109764,-85.17974675
Canada,Red Deer,3.0,2105,52.26664044,-113.8000411
Canada,Lethbridge,3.0,2210,49.70049217,-112.8332784
Canada,Abbotsford,8.0,2247,49.05037681,-122.2999874
United States of America,Grants Pass,8.0,2937,42.43954002,-123.3271857
United States of America,Odessa,6.0,2065,31.84556134,-102.3672248
United States of America,New Bedford,6.0,1848,41.6561253,-70.94469833
United States of America,Kingsport,10.0,2130,36.54832338,-82.56194788
United States of America,Sioux City,3.0,2196,42.50038902,-96.39999211
United States of America,Riverton,1.0,1900,43.02816042,-108.3950481
United States of America,Carson City,3.0,1953,39.16384849,-119.7663953
Canada,Kamloops,6.0,2299,50.66666058,-120.3332858
United States of America,Waco,3.0,2362,31.54917116,-97.14638066
United States of America,Wenatchee,10.0,2660,47.42362856,-120.3090237
Croatia,Zagreb,5.0,3390,45.80000673,15.99999467
Nigeria,Lagos,11.0,2884,6.443261653,3.391531071
United States of America,Sheboygan,2.0,2024,43.75082949,-87.71442407
Canada,Saint John,6.0,1509,45.26704185,-66.07667505
United Arab Emirates,Dubai,39.0,12228,25.22999615,55.27997432
United States of America,Greeley,7.0,2764,40.41919822,-104.739974
Russia,Moscow,5.0,2941,55.75216412,37.61552283
United States of America,Yuba City,3.0,2651,39.14103334,-121.6157656
United States of America,Fairbanks,0.0,1717,64.83698427,-147.7106586
New Zealand,Hamilton,3.0,875,-37.77000853,175.3000386
United States of America,Key West,7.0,2375,24.55523114,-81.78274479
United States of America,Lima,4.0,1683,40.74287355,-84.10526453
United States of America,Merced,4.0,2123,37.30261843,-120.481933
United States of America,Rocky Mount,1.0,1920,35.93799888,-77.79076624
Hungary,Budapest,6.0,4212,47.50000633,19.08332068
United States of America,Hickory,7.0,1616,35.7334894,-81.34140222
United States of America,Wausau,4.0,1815,44.95915367,-89.6299919
Philippines,Cebu,3.0,1221,10.31997601,123.9000752
United States of America,Marquette,3.0,1939,46.54673118,-87.40658757
United States of America,Dubuque,4.0,2012,42.50093162,-90.66445073
United States of America,Paso Robles,8.0,2561,35.6265967,-120.6899823
United States of America,Ardmore,5.0,1830,34.1810777,-97.12940495
United States of America,Cordova,3.0,1789,60.5427761,-145.7574962
United Kingdom,Coventry,2.0,2496,52.42040367,-1.499996583
Cayman Islands,George Town,9.0,2124,19.28043683,-81.32998173
United Kingdom,Reading,3.0,2596,51.46997072,-0.980028322
United States of America,Clarksburg,1.0,1523,39.28327272,-80.33691573
Germany,Hamburg,7.0,3971,53.55002464,9.999999144
Vietnam,Hanoi,2.0,1926,21.03332725,105.8500142
China,Shanghai,1.0,461,31.21645245,121.4365047
United States of America,Grand Island,1.0,1339,40.92226829,-98.35798629
United States of America,Titusville,5.0,1517,28.61234784,-80.80779138
United States of America,Terre Haute,3.0,1882,39.46664654,-87.41387394
Thailand,Chiang Mai,2.0,737,18.7999752,98.98004594
United States of America,Hattiesburg,3.0,1827,31.32727256,-89.2902452
United States of America,Port Charlotte,4.0,1634,27.00004315,-82.10569666
United States of America,Montrose,3.0,1955,38.47727541,-107.8655197
United States of America,Laramie,0.0,1986,41.31136599,-105.5905681
United States of America,Oak Ridge,3.0,1848,36.01065594,-84.26972477
Poland,Warsaw,4.0,3622,52.25000063,20.99999955
United Kingdom,Bradford,4.0,1978,53.80003522,-1.749981325
Canada,Chilliwack,5.0,1884,49.16664878,-121.949983
Ecuador,Quito,4.0,2015,-0.214988181,-78.50005111
United States of America,Dalton,6.0,1594,34.76972394,-84.97030217
United States of America,Valdosta,0.0,1095,30.8328583,-83.27859664
United States of America,Waterville,4.0,1552,44.5518917,-69.64578536
United States of America,Owensboro,4.0,1569,37.77457928,-87.11332381
Canada,Prince George,3.0,1468,53.91666892,-122.7666515
United Kingdom,Norwich,9.0,2534,52.63036501,1.300013386
United States of America,Casper,7.0,1730,42.86661989,-106.3124878
United States of America,Kokomo,2.0,1765,40.48676516,-86.13364201
United States of America,Flint,5.0,2439,43.0128642,-83.68753809
United States of America,Fort Smith,4.0,1663,35.38622377,-94.39835718
United States of America,Walla Walla,3.0,1987,46.06515851,-118.3418828
United States of America,Ukiah,6.0,2483,39.15423667,-123.2108621
United States of America,Winona,7.0,1642,44.0504236,-91.63919743
United States of America,Lumberton,4.0,1320,34.62720034,-79.01190617
United States of America,Sherman,4.0,1749,33.63599469,-96.60858403
United States of America,Roseburg,3.0,2132,43.21843304,-123.3560987
United States of America,Texarkana,4.0,1588,33.44210472,-94.03747481
United States of America,Brownsville,4.0,1630,25.91997988,-97.50000248
United States of America,Sumter,3.0,1323,33.92065432,-80.34172164
New Zealand,Dunedin,1.0,498,-45.87995278,170.4799711
United States of America,Winter Haven,7.0,1085,28.02191876,-81.73300623
United States of America,Abilene,1.0,1345,32.4486253,-99.73278609
Czech Republic,Prague,7.0,3116,50.08333701,14.46597978
United States of America,Waukegan,2.0,1700,42.36404075,-87.8447262
United States of America,Edinburg,0.0,1734,26.30318646,-98.1599622
Uruguay,Montevideo,2.0,1447,-34.85804157,-56.17105229
United States of America,Joplin,0.0,1770,37.08459556,-94.51307886
United States of America,Brookings,3.0,1756,44.30676455,-96.78803044
United States of America,Victoria,1.0,1351,28.80499758,-97.00334029
Italy,Milan,2.0,3000,45.4699752,9.20500891
United States of America,Temple,2.0,1978,31.10209251,-97.36300826
Canada,Oshawa,2.0,1607,43.87999473,-78.84997807
United States of America,Wichita Falls,5.0,2119,33.91362632,-98.49306848
United States of America,Monticello,2.0,1486,37.87178265,-109.3421995
Cambodia,Phnom Penh,3.0,530,11.55003013,104.9166345
Lebanon,Beirut,4.0,2945,33.87197512,35.50970821
Canada,Charlottetown,3.0,1222,46.24928164,-63.13132512
United States of America,Lake Charles,6.0,1614,30.22638369,-93.21718897
United States of America,Grand Forks,1.0,1973,47.92527753,-97.0324858
United States of America,Bethel,2.0,1243,60.79330345,-161.7557961
United States of America,Pocatello,0.0,1796,42.87134829,-112.4447234
United States of America,Fort Pierce,2.0,1273,27.44678591,-80.3258053
United States of America,San Angelo,8.0,1452,31.4640084,-100.4366966
United States of America,Gulfport,4.0,1185,30.3675637,-89.09276371
Canada,Sarnia,3.0,1014,42.96663963,-82.3999681
United States of America,Victorville,3.0,1479,34.5365082,-117.2903191
United States of America,Daytona Beach,6.0,1629,29.21055422,-81.0230754
United Kingdom,Plymouth,3.0,1902,50.38538576,-4.159989259
United States of America,Idaho Falls,3.0,1862,43.46668662,-112.0333014
United States of America,Yuma,5.0,1607,32.68527753,-114.6236084
United States of America,Lawton,1.0,895,34.59903668,-98.40997278
South Africa,Johannesburg,20.0,5618,-26.17004474,28.03000972
United States of America,Goldsboro,0.0,818,35.38513857,-77.99305363
United States of America,Joliet,6.0,1457,41.52998313,-88.10667403
United States of America,Slidell,3.0,1342,30.27495953,-89.78109379
United States of America,Eagle,4.0,1650,64.78799501,-141.1999966
United States of America,Coos Bay,2.0,1400,43.36661521,-124.2165888
United States of America,West Bend,1.0,1155,43.42570721,-88.18333602
United States of America,Elkhart,3.0,1703,41.68294537,-85.96879419
United States of America,Lake Havasu City,2.0,1292,34.49829348,-114.3082789
United States of America,Galveston,6.0,1925,29.301143,-94.7974801
United States of America,Hutchinson,3.0,1113,38.06549176,-97.92349085
New Zealand,Tauranga,3.0,799,-37.69642129,176.1536299
United States of America,Kearney,2.0,1305,40.70070559,-99.08114628
United States of America,Laredo,1.0,1422,27.50613629,-99.50721847
United States of America,Parkersburg,6.0,1230,39.26665875,-81.56164718
United States of America,Niagara Falls,1.0,1004,43.09482302,-79.0369434
Japan,Yokohama,0.0,401,35.32002626,139.5800484
United States of America,Klamath Falls,4.0,1178,42.22500531,-121.7805359
Ghana,Accra,9.0,1773,5.550034606,-0.21671574
Saudi Arabia,Riyadh,8.0,3374,24.64083315,46.77274166
United States of America,London,1.0,1032,37.12888226,-84.08335372
Netherlands,Rotterdam,11.0,2961,51.9199691,4.479974323
Canada,Courtenay,3.0,1588,49.68333559,-124.9999777
United States of America,Baytown,2.0,1559,29.75584393,-94.96772811
United States of America,Rock Island,2.0,1670,41.49339622,-90.53461369
United States of America,Galesburg,2.0,1160,40.94777061,-90.37108362
United States of America,Dothan,1.0,961,31.22345461,-85.39058659
United States of America,Beckley,3.0,1146,37.78018618,-81.18301396
United States of America,Zanesville,4.0,758,39.94028688,-82.01332503
United States of America,Paterson,3.0,1719,40.91999453,-74.17000533
United States of America,Williamsport,0.0,1075,41.24108604,-77.0013829
United States of America,Minot,6.0,1255,48.23249392,-101.2958173
United States of America,Moorhead,0.0,1201,46.87430808,-96.74219344
Canada,Sydney,3.0,892,46.06611452,-60.17998071
Indonesia,Surabaya,2.0,851,-7.249235821,112.7508333
Canada,North Bay,2.0,784,46.30000205,-79.44999313
India,Bangalore,10.0,6333,12.96999514,77.56000972
Canada,Orangeville,6.0,882,43.91707257,-80.08333948
Venezuela,Caracas,2.0,1281,10.50099855,-66.91703719
Ecuador,Guayaquil,1.0,1040,-2.220033754,-79.92004195
United Kingdom,Swansea,3.0,1517,51.6299868,-3.950002077
United States of America,Elmira,2.0,1466,42.09012982,-76.80803552
Brazil,Belo Horizonte,2.0,991,-19.91502602,-43.91500452
United States of America,Beaufort,1.0,1372,32.43216636,-80.68950403
Japan,Osaka,0.0,352,34.75003522,135.4601448
Jordan,Amman,4.0,1994,31.95002525,35.93329993
Norway,Bergen,6.0,1688,60.39100242,5.324522256
United States of America,Rhinelander,2.0,713,45.63991315,-89.41207239
India,Mumbai,7.0,5625,19.01699038,72.8569893
Netherlands,Utrecht,9.0,2620,52.10034568,5.120038614
United States of America,Bryan,5.0,1011,30.67418581,-96.36968388
United States of America,Pontiac,2.0,829,42.65185264,-83.29022384
United States of America,Kingman,2.0,1200,35.18987917,-114.0522221
United States of America,Sidney,1.0,1006,41.13980023,-102.9782727
United States of America,Madisonville,1.0,894,37.33274579,-87.5022148
Canada,Belleville,1.0,916,44.16666974,-77.38334924
United States of America,Bartlesville,0.0,1246,36.74720013,-95.98058618
United States of America,Superior,1.0,1100,46.72124249,-92.10389775
United States of America,Arcata,2.0,1022,40.88519045,-124.0882245
United States of America,Brainerd,4.0,1127,46.35800885,-94.20084986
United States of America,Salina,2.0,955,38.82467023,-97.6071794
Canada,Campbell River,2.0,840,50.01708783,-125.2499882
United States of America,Lufkin,0.0,859,31.33843467,-94.72887964
Saudi Arabia,Jeddah,2.0,1958,21.51688946,39.21919755
United States of America,Bemidji,1.0,1192,47.47357383,-94.88018823
United Kingdom,Ipswich,4.0,1432,52.07034751,1.169995482
United States of America,Southaven,2.0,883,34.96891075,-90.00345748
United States of America,Biloxi,2.0,1105,30.39580487,-88.88530868
United Kingdom,York,2.0,1686,53.97038658,-1.080022218
United States of America,Alpine,2.0,980,30.36071657,-103.6650009
Canada,Penticton,3.0,1110,49.50037518,-119.5832799
Indonesia,Bandung,4.0,842,-6.950029278,107.5700126
United States of America,Harlingen,0.0,857,26.19755983,-97.69019759
Saint Lucia,Castries,0.0,590,14.00197349,-61.00000818
United States of America,Centralia,3.0,862,46.71641075,-122.9529708
New Zealand,Palmerston North,2.0,381,-40.35269326,175.6072033
United States of America,Petoskey,1.0,776,45.37375368,-84.95518681
Nicaragua,Managua,2.0,797,12.15301658,-86.26849166
United States of America,Beaver Falls,3.0,809,40.75194277,-80.31942326
United Kingdom,Bournemouth,9.0,1550,50.72999005,-1.900049684
United States of America,Glasgow,0.0,667,48.18396975,-106.6352588
Aruba,Oranjestad,0.0,705,12.53038373,-70.02899195
United States of America,Williston,1.0,1301,48.15678794,-103.6280005
United States of America,La Grande,1.0,932,45.32468691,-118.0866012
United States of America,Lake City,1.0,973,30.18971926,-82.63974675
United States of America,Spencer,0.0,725,43.14528505,-95.14717452
United States of America,Hays,0.0,878,38.87936973,-99.322191
Ireland,Galway,3.0,772,53.272393,-9.048812298
Belgium,Antwerpen,4.0,1532,51.22037355,4.415017048
United States of America,Bullhead City,2.0,929,35.14817629,-114.5674878
United States of America,Alamogordo,1.0,843,32.89947634,-105.9597187
Japan,Kyoto,0.0,168,35.02999229,135.7499979
Malaysia,Shah Alam,2.0,675,3.066695996,101.5499977
United Kingdom,Luton,0.0,1116,51.88035911,-0.420010825
United States of America,Dillon,0.0,1066,45.21567548,-112.6839852
Canada,Whitehorse,3.0,1032,60.71671897,-135.0499844
Canada,Nelson,0.0,924,49.48365786,-117.2832911
United States of America,Houma,1.0,924,29.59593121,-90.71948613
United Arab Emirates,Abu Dhabi,5.0,3559,24.46668357,54.36659338
United States of America,Mason City,0.0,605,43.15401837,-93.20083338
United Kingdom,Sunderland,1.0,804,54.92001853,-1.380029746
Qatar,Doha,12.0,3913,25.28655601,51.53296789
Costa Rica,Heredia,0.0,562,9.991997986,-84.12000251
United States of America,Paducah,0.0,1180,37.08371706,-88.60000309
United States of America,Wilkes Barre,3.0,748,41.24904421,-75.87793726
Bulgaria,Sofia,4.0,2455,42.68334943,23.31665401
United States of America,Palmer,1.0,738,61.59971417,-149.1126919
United States of America,Petersburg,3.0,872,37.22776512,-77.40223698
Canada,Medicine Hat,1.0,882,50.03331423,-110.6833322
New Zealand,Whangarei,2.0,409,-35.71995278,174.3100215
Macedonia,Skopje,0.0,1154,42.00000612,21.43346147
United States of America,Hopkinsville,2.0,561,36.86548749,-87.4886239
United States of America,Enid,0.0,816,36.39554201,-97.8780931
United States of America,Gadsden,3.0,872,34.01455039,-86.00664718
Guyana,Georgetown,0.0,903,6.801973693,-58.16702865
United Kingdom,Dundee,1.0,980,56.47038902,-3.000008384
Brazil,Curitiba,3.0,858,-25.420013,-49.3199976
United States of America,El Centro,1.0,724,32.79237693,-115.5580475
United States of America,Casa Grande,1.0,682,32.87937421,-111.7566258
Brazil,Porto Alegre,1.0,936,-30.05001463,-51.20001205
United States of America,Orangeburg,0.0,816,33.49680422,-80.86223251
United States of America,Alton,1.0,897,38.89099693,-90.18422164
United States of America,Tupelo,3.0,779,34.25792055,-88.70333012
United States of America,Crestview,0.0,580,30.75420677,-86.57260746
Canada,Cornwall,1.0,700,45.01705711,-74.73333012
Kuwait,Kuwait,1.0,1811,29.36971763,47.97830115
Germany,Stuttgart,7.0,1625,48.77997988,9.199996296
United States of America,Wailuku,1.0,750,20.89147544,-156.5047213
United Kingdom,Peterborough,5.0,1238,52.58041974,-0.249995363
United Kingdom,Bath,3.0,1204,51.3837486,-2.350022218
United States of America,Cedar City,0.0,637,37.67742759,-113.061094
United States of America,Tillamook,3.0,1263,45.45524742,-123.8425031
United Kingdom,Portsmouth,2.0,1122,50.80034751,-1.080022218
New Zealand,Nelson,1.0,440,-41.29258421,173.2474507
Sweden,Uppsala,3.0,1115,59.86005292,17.63999792
Indonesia,Denpasar,2.0,242,-8.650028871,115.2199849
United States of America,Nacogdoches,2.0,795,31.60374147,-94.65526656
Fiji,Suva,0.0,201,-18.13301593,178.4417073
United States of America,Vicksburg,2.0,641,32.3524813,-90.8777452
Mexico,Monterrey,3.0,877,25.66999514,-100.3299848
United States of America,Homer,1.0,770,59.64293439,-151.5482797
United States of America,Enterprise,1.0,943,31.32781516,-85.84399561
United Kingdom,Exeter,3.0,1172,50.70040529,-3.529950197
United States of America,Pendleton,2.0,645,45.67259849,-118.7874886
Canada,Brandon,1.0,806,49.83327476,-99.94998214
Australia,Canberra,0.0,71,-35.28302855,149.1290262
United States of America,Gillette,1.0,575,44.28317425,-105.5052503
United States of America,Galena,1.0,494,64.73329551,-156.9269953
United States of America,Cape Girardeau,3.0,810,37.30582237,-89.51808659
Taiwan,Taichung,0.0,270,24.15207745,120.681667
Bangladesh,Dhaka,1.0,3155,23.72305971,90.40857947
Suriname,Paramaribo,2.0,621,5.83503013,-55.16703089
Pakistan,Karachi,2.0,2333,24.86999229,66.99000891
United States of America,Bishop,0.0,559,37.36395835,-118.394076
United States of America,Alliance,0.0,418,42.10139528,-102.8701915
United States of America,Bar Harbor,1.0,731,44.38789654,-68.20437464
United States of America,Los Alamos,5.0,1036,35.89110252,-106.2977084
United States of America,Muskogee,3.0,895,35.74821718,-95.36943486
China,Guangzhou,3.0,344,23.1449813,113.3250101
El Salvador,San Salvador,1.0,747,13.71000165,-89.20304122
Norway,Trondheim,5.0,1323,63.41665753,10.41666622
South Africa,Cape Town,7.0,3385,-33.92001097,18.43498816
United Kingdom,Middlesbrough,3.0,846,54.58037518,-1.230013063
Estonia,Tallinn,5.0,1754,59.43387738,24.72804073
Kenya,Nairobi,5.0,4336,-1.283346742,36.81665686
Latvia,Riga,1.0,1448,56.95002382,24.09996537
Turkey,Ankara,5.0,1867,39.92723859,32.86439164
United States of America,Alpena,0.0,510,45.06160219,-83.43269576
New Zealand,Napier,1.0,328,-39.4900069,176.9150305
Canada,Sherbrooke,3.0,766,45.40000531,-71.89998885
Sri Lanka,Colombo,4.0,1820,6.931965758,79.85775061
India,Chennai,2.0,3094,13.08998781,80.27999874
Canada,Orillia,2.0,508,44.59997662,-79.41666183
Belgium,Gent,2.0,934,51.02999758,3.700021931
Ireland,Limerick,1.0,613,52.664704,-8.623050172
United States of America,Sitka,2.0,427,57.06039769,-135.3275494
United States of America,Douglas,2.0,724,42.75647158,-105.3845341
United States of America,Douglas,2.0,724,31.50777834,-82.85068994
United States of America,Douglas,2.0,724,31.35864016,-109.5483627
Slovakia,Bratislava,0.0,1018,48.15001833,17.11698075
United States of America,Gary,2.0,667,41.58039349,-87.33000309
Morocco,Casablanca,1.0,856,33.59997622,-7.616367433
United States of America,Virginia,2.0,368,47.52367413,-92.53640365
India,Delhi,7.0,3903,28.6699929,77.23000403
United States of America,Butte,3.0,844,46.0038961,-112.5338394
Ecuador,Cuenca,0.0,633,-2.89999225,-78.99999475
New Zealand,New Plymouth,2.0,371,-39.0641931,174.0805265
United States of America,Selma,3.0,552,32.40756838,-87.0211589
United States of America,Twin Falls,1.0,670,42.5609538,-114.4605693
United States of America,Palatka,2.0,856,29.64768516,-81.65130579
Trinidad and Tobago,San Fernando,2.0,613,10.28046166,-61.45937678
Italy,Florence,0.0,1087,43.78000083,11.25000036
United States of America,Benton Harbor,1.0,651,42.11663983,-86.45419092
Slovenia,Ljubljana,3.0,1841,46.05528831,14.51496903
United States of America,Crescent City,1.0,791,41.7564551,-124.2004916
Brazil,Campinas,0.0,469,-22.90001178,-47.10002975
Canada,Brockville,1.0,476,44.5892796,-75.69531275
Honduras,Tegucigalpa,0.0,665,14.1020449,-87.21752934
South Africa,Pretoria,5.0,2143,-25.70692055,28.22942908
United States of America,Moab,2.0,795,38.57370363,-109.5491895
Pakistan,Lahore,1.0,2132,31.55997154,74.35002478
United Kingdom,Blackpool,0.0,578,53.83039512,-3.050005332
Canada,Cranbrook,1.0,764,49.5166791,-115.7666653
Mexico,Guadalajara,0.0,628,20.67001609,-103.3300342
Ukraine,Kiev,2.0,1414,50.43336733,30.51662797
Brazil,Salvador,1.0,377,-12.9699719,-38.47998743
Hong Kong S.A.R.,Hong Kong,1.0,381,22.3049809,114.1850093
United Kingdom,Chester,1.0,770,53.20002016,-2.919987428
Mexico,Tijuana,2.0,646,32.50001752,-117.079996
Brazil,Recife,0.0,288,-8.075645326,-34.91560551
United States of America,Willmar,0.0,459,45.12188275,-95.04330489
Italy,Turin,1.0,1016,45.07038719,7.669960489
Cyprus,Nicosia,3.0,1240,35.16667645,33.36663489
United States of America,Emporia,2.0,418,38.40423077,-96.18137496
United States of America,Kirksville,1.0,459,40.19368227,-92.58280908
Netherlands,Groningen,3.0,1062,53.22040651,6.580001179
Canada,Timmins,2.0,504,48.46658815,-81.33331486
United States of America,Tulare,0.0,695,36.20702639,-119.3441213
Mexico,Puerto Vallarta,1.0,552,20.67709576,-105.2449819
Germany,Frankfurt,5.0,881,50.09997683,8.67501542
United Kingdom,Carlisle,1.0,650,54.87999514,-2.929986818
Bosnia and Herzegovina,Sarajevo,0.0,887,43.8500224,18.38300167
United States of America,Dickinson,1.0,496,46.88399742,-102.7888011
Switzerland,Lausanne,3.0,1282,46.53042727,6.650022744
India,Hyderabad,6.0,2944,17.39998313,78.47995357
France,Lyon,1.0,1063,45.77000856,4.830030475
Lithuania,Vilnius,2.0,1604,54.68336631,25.31663529
Canada,Corner Brook,1.0,620,48.94999534,-57.93334782
Norway,Stavanger,2.0,1146,58.97000389,5.680004434
Macau S.A.R,Macau,0.0,249,22.20299746,113.5450484
United States of America,Wahiawa,1.0,730,21.50309186,-158.0236209
United States of America,Cleburne,0.0,573,32.35152529,-97.39248967
United States of America,Dodge City,1.0,408,37.76005821,-100.018195
United States of America,El Dorado,0.0,565,33.21392743,-92.66251998
Australia,Hobart,0.0,62,-42.85000853,147.2950297
Spain,Valencia,2.0,914,39.48501752,-0.400012046
China,Shenzhen,1.0,154,22.55237051,114.1221231
United States of America,Hobbs,2.0,330,32.71261436,-103.1406143
Bolivia,La Paz,0.0,349,-16.49797361,-68.14998519
Japan,Kawasaki,0.0,123,35.52998761,139.705002
United States of America,Pierre,1.0,244,44.36833701,-100.350552
Canada,Moose Jaw,1.0,496,50.39998435,-105.5500021
United States of America,Hancock,0.0,525,47.12729006,-88.5808053
Costa Rica,Alajuela,1.0,698,10.02002016,-84.23003727
Puerto Rico,Ponce,0.0,288,18.00038576,-66.61664209
United States of America,Kankakee,0.0,335,41.12036989,-87.86110763
Malaysia,Kuching,0.0,247,1.529969909,110.3299991
United States of America,Yankton,0.0,434,42.88201947,-97.39248967
Taiwan,Kaohsiung,0.0,185,22.63330711,120.2666019
Canada,Cochrane,2.0,584,49.06701662,-81.01656417
United States of America,Vernal,6.0,332,40.45539756,-109.5280022
Thailand,Phuket,0.0,200,7.876533426,98.3815295
Canada,Powell River,3.0,486,49.88371096,-124.5499793
United States of America,Texas City,1.0,392,29.41087791,-94.96276717
Japan,Nagoya,0.0,189,35.15499758,136.9149914
United States of America,Lihue,0.0,439,21.98151227,-159.3710063
United States of America,Iron Mountain,0.0,856,45.82246014,-88.06409265
New Zealand,Hastings,0.0,200,-39.63821491,176.8367924
United States of America,Pilot Point,0.0,398,57.56455996,-157.5691266
Brazil,Fortaleza,0.0,477,-3.750017884,-38.57998132
United States of America,Gunnison,1.0,401,38.54476483,-106.92829
Pakistan,Islamabad,10.0,2591,33.69999595,73.16663448
United States of America,Elko,2.0,403,40.83250633,-115.7619886
Dominica,Roseau,0.0,244,15.30101564,-61.38701298
Nepal,Kathmandu,2.0,963,27.71669191,85.31664221
United States of America,Seward,1.0,486,60.1261607,-149.4699827
India,Pune,4.0,2616,18.53001752,73.85000362
Canada,Prince Albert,2.0,526,53.20002016,-105.7499899
Canada,Bathurst,1.0,184,47.59997438,-65.64998275
United States of America,New Iberia,2.0,533,30.00358075,-91.81830794
Germany,Essen,1.0,563,51.44999778,7.016615355
Taiwan,Hsinchu,0.0,116,24.8167914,120.9767395
Ireland,Waterford,1.0,245,52.2582947,-7.111927939
Albania,Tirana,0.0,516,41.32754071,19.81888301
Canada,Camrose,0.0,294,53.01669802,-112.8166386
United States of America,Natchez,0.0,212,31.55480389,-91.38750737
United States of America,Cody,0.0,356,44.52321128,-109.0571007
United States of America,North Platte,1.0,333,41.13628623,-100.7705005
United States of America,Richfield,0.0,275,38.77247703,-112.0832984
United States of America,Tomah,2.0,368,43.98505292,-90.50389205
United States of America,Glenwood Springs,0.0,586,39.54658999,-107.3247
India,New Delhi,1.0,2439,28.60002301,77.19998002
United States of America,Ottumwa,2.0,362,41.01288291,-92.414809
United States of America,Cadillac,0.0,261,44.25121238,-85.41360844
United States of America,Craig,0.0,206,40.51728009,-107.5503968
United States of America,Faribault,0.0,297,44.29048647,-93.26801274
South Africa,Durban,3.0,1424,-29.865013,30.98001054
Canada,Antigonish,0.0,218,45.62691652,-61.99819015
Thailand,Nonthaburi,1.0,170,13.83368919,100.4833134
Denmark,Odense,0.0,640,55.40037681,10.38333492
United States of America,Mitchell,2.0,685,43.71429425,-98.02619776
New Zealand,Invercargill,1.0,212,-46.40942951,168.3650097
Germany,Bonn,1.0,563,50.72045575,7.080022337
Portugal,Coimbra,0.0,339,40.20037437,-8.41668034
United States of America,Atlantic City,3.0,393,39.36463727,-74.4233232
Canada,Terrace,1.0,330,54.49999249,-128.5833248
Italy,Naples,0.0,517,40.84002525,14.24501135
Canada,Steinbach,0.0,346,49.51709251,-96.68330815
Poland,Wroclaw,2.0,632,51.11043194,17.03000932
United States of America,Hereford,0.0,285,34.82191713,-102.3985924
Canada,Yellowknife,0.0,512,62.44201418,-114.3969814
Belize,Belize City,1.0,597,17.49871096,-88.18837447
Poland,Poznan,2.0,660,52.4057534,16.89993974
Japan,Sapporo,0.0,46,43.07497927,141.3400443
United States of America,Escanaba,2.0,530,45.7456948,-87.06436039
Germany,Bremen,1.0,518,53.08000165,8.80002071
Netherlands,Eindhoven,4.0,749,51.42997316,5.50001542
China,Hangzhou,0.0,198,30.24997398,120.1700187
Germany,Karlsruhe,5.0,518,48.99999229,8.399993448
Taiwan,Tainan,0.0,76,23.00000307,120.2000427
Senegal,Dakar,1.0,415,14.71583173,-17.47313013
United States of America,Scottsbluff,0.0,409,41.86750775,-103.6606859
Italy,Bologna,0.0,644,44.50042198,11.34002071
Egypt,Alexandria,1.0,418,31.20001935,29.94999589
New Zealand,Rotorua,0.0,161,-38.13458576,176.2454073
France,Montpellier,0.0,742,43.61039878,3.869985716
United States of America,Albert Lea,0.0,217,43.64778668,-93.36870427
United States of America,Port Arthur,1.0,130,29.89898765,-93.92859257
United Kingdom,Inverness,0.0,306,57.46712404,-4.23326644
South Korea,Busan,0.0,128,35.09505292,129.0100476
United States of America,Havre,0.0,398,48.54523968,-109.6776829
United Kingdom,Lisburn,1.0,230,54.52037884,-6.670016929
Germany,Leipzig,1.0,867,51.33540529,12.40998124
France,Toulouse,1.0,994,43.61995892,1.449926716
Luxembourg,Luxembourg,2.0,588,49.61166038,6.130002806
Venezuela,Valencia,0.0,137,10.22998151,-67.9800214
United States of America,Barstow,0.0,355,34.89901837,-117.0218858
United Kingdom,Perth,0.0,396,56.40034161,-3.469979697
United States of America,National City,0.0,281,32.67194501,-117.0980052
Canada,Selkirk,0.0,258,50.15002545,-96.88332178
Canada,Pembroke,1.0,360,45.85026206,-77.11664718
United States of America,Poplar Bluff,2.0,289,36.76019676,-90.40268376
United States of America,Marinette,0.0,308,45.10038535,-87.63047571
United States of America,Price,0.0,307,39.59979087,-110.8100169
Germany,Mannheim,1.0,541,49.50037518,8.470015013
Finland,Turku,1.0,469,60.4538668,22.25496171
United States of America,Hot Springs,0.0,189,34.50395205,-93.05500248
United States of America,Glendive,0.0,279,47.10858319,-104.7104926
United States of America,Kanab,0.0,364,37.04738853,-112.5254936
United Arab Emirates,Sharjah,1.0,1002,25.37138287,55.40647823
Spain,Zaragoza,1.0,437,41.65000165,-0.889982138
South Korea,Daegu,0.0,110,35.86678876,128.6069714
India,Kolkata,2.0,1442,22.4949693,88.32467566
Chile,Concepcion,1.0,301,-36.83001422,-73.05002202
Malaysia,Ipoh,0.0,169,4.599989236,101.0649833
Jamaica,Montego Bay,0.0,301,18.46668805,-77.91667586
Indonesia,Semarang,0.0,222,-6.966617412,110.4200195
Australia,Richmond,0.0,28,-33.59951373,150.7399873
Australia,Richmond,0.0,28,-20.71626911,143.1333199
Malaysia,Kota Kinabalu,1.0,250,5.979982523,116.1100081
France,Strasbourg,0.0,417,48.57996625,7.750007282
United States of America,Green River,0.0,436,41.51455772,-109.4649827
France,Bordeaux,2.0,667,44.85001304,-0.595013063
United States of America,Safford,0.0,158,32.83382143,-109.7068801
United States of America,Ketchikan,1.0,618,55.3562193,-131.6639895
Nigeria,Abuja,2.0,308,9.083333149,7.533328002
United States of America,Ironwood,0.0,205,46.4558065,-90.15939112
United States of America,Coffeyville,0.0,141,37.03806093,-95.6263184
United States of America,Del Rio,0.0,281,29.36294802,-100.8963843
United States of America,Ponca City,0.0,346,36.7073576,-97.08527328
Germany,Dortmund,2.0,579,51.52996706,7.450025593
Bahrain,Manama,2.0,1214,26.23613629,50.58305172
Dominican Republic,Santiago,1.0,196,19.50000999,-70.67001225
Mexico,Hermosillo,0.0,152,29.09888145,-110.954065
Switzerland,Bern,0.0,494,46.91668276,7.466975462
Canada,Quesnel,0.0,338,52.98367678,-122.4832837
French Polynesia,Papeete,0.0,223,-17.53336261,-149.5666694
Jamaica,Mandeville,1.0,117,18.03300305,-77.49999851
Colombia,Cali,2.0,388,3.399959126,-76.49996647
Canada,Yarmouth,0.0,160,43.83079447,-66.1125812
Ireland,Tralee,1.0,176,52.26669212,-9.716652671
United States of America,Calais,0.0,102,45.16598859,-67.24239201
Germany,Dresden,0.0,571,51.04997052,13.75000281
United Kingdom,Dumfries,0.0,162,55.06708966,-3.550000652
Austria,Innsbruck,2.0,381,47.28040733,11.4099906
Netherlands,Arnhem,1.0,314,51.98799603,5.922999562
Romania,Iasi,0.0,557,47.16834698,27.57494706
Switzerland,Basel,0.0,900,47.58038902,7.590017048
Mexico,Puebla,0.0,276,19.04995994,-98.20003727
Indonesia,Bekasi,1.0,267,-6.217257468,106.972323
Mongolia,Ulaanbaatar,0.0,360,47.9166734,106.9166158
Canada,Banff,1.0,161,51.17799888,-115.5719227
Germany,Wiesbaden,0.0,482,50.08039146,8.250028441
Costa Rica,Cartago,0.0,255,9.86997764,-83.92997807
United States of America,Ely,0.0,225,47.90042116,-91.82569767
United States of America,Ely,0.0,225,39.24702171,-114.887675
United States of America,Perryville,0.0,421,55.91861391,-159.1511489
Canada,Wetaskiwin,1.0,252,52.96657188,-113.3832966
United States of America,Delano,0.0,431,35.76193728,-119.2430681
Georgia,Tbilisi,0.0,913,41.72500999,44.79079545
Japan,Kobe,0.0,93,34.67998781,135.1699816
United States of America,Waycross,3.0,334,31.21381695,-82.35490625
South Korea,Incheon,0.0,136,37.47614789,126.6422334
United States of America,Polson,0.0,380,47.68800519,-114.156686
United States of America,Vernon,0.0,250,34.15105369,-99.29038416
United States of America,Houlton,0.0,242,46.12551658,-67.83971989
Japan,Naha,0.0,91,26.20717165,127.6729716
American Samoa,Pago Pago,0.0,87,-14.2766105,-170.7066451
China,Nanjing,0.0,124,32.05001914,118.7799743
Honduras,San Pedro Sula,1.0,237,15.50002159,-88.02998621
Turkey,Izmir,0.0,1159,38.43614968,27.15179401
Puerto Rico,Mayaguez,0.0,173,18.20151044,-67.13971094
New Zealand,Queenstown,0.0,129,-45.02997882,168.6625109
Vietnam,Da Nang,0.0,99,16.06003908,108.2499711
United States of America,Big Spring,0.0,321,32.24318565,-101.4751862
Ireland,Dundalk,0.0,141,54.00041058,-6.416673219
Sweden,Halmstad,0.0,207,56.67177207,12.85558712
Thailand,Khon Kaen,0.0,124,16.42004295,102.8300435
United States of America,Kenai,0.0,169,60.55435162,-151.2580131
Venezuela,Maracaibo,1.0,161,10.72997683,-71.65997766
United States of America,Pine Bluff,1.0,325,34.22869753,-92.00305119
Portugal,Braga,1.0,302,41.55499453,-8.421331219
Canada,Williams Lake,0.0,264,52.1166496,-122.1499966
Canada,Revelstoke,0.0,224,51.0004645,-118.1833395
United States of America,Paragould,0.0,306,36.05708722,-90.50288436
United States of America,Gallup,0.0,144,35.52407066,-108.7339938
Canada,Peace River,1.0,270,56.23332338,-117.2832911
Belize,Belmopan,1.0,203,17.25203351,-88.767073
Sweden,Helsingborg,2.0,481,56.05049217,12.70004106
United States of America,Brownwood,0.0,210,31.70789532,-98.98231511
Norway,Drammen,0.0,352,59.75724265,10.19073686
Malaysia,Johor Bahru,0.0,286,1.480024637,103.7300402
Morocco,Rabat,0.0,279,34.02529909,-6.83613082
Indonesia,Yogyakarta,0.0,253,-7.77995278,110.3750093
United States of America,Alice,0.0,195,27.75046246,-98.07048446
Canada,North Battleford,1.0,226,52.76663576,-108.2833494
Grenada,Saint George's,0.0,184,12.0526334,-61.74164323
United States of America,Presque Isle,0.0,339,46.79340863,-68.00216476
Austria,Graz,1.0,393,47.0777582,15.41000484
Canada,Amherst,0.0,122,45.81656903,-64.21658187
Italy,Verona,0.0,473,45.44039044,10.99001623
Canada,Dawson Creek,0.0,220,55.76696942,-120.233266
Malaysia,Seremban,0.0,178,2.710492166,101.9400203
Mexico,La Paz,0.0,335,24.13995933,-110.3199952
Italy,Palermo,0.0,339,38.12502301,13.35002722
United States of America,Winnemucca,0.0,244,40.97337628,-117.7346847
United States of America,Eagle Pass,1.0,299,28.71102399,-100.4892774
Portugal,Funchal,2.0,166,32.64998252,-16.88003972
France,Rouen,0.0,98,49.43040529,1.079975137
Thailand,Lampang,0.0,43,18.29155662,99.48125565
Czech Republic,Brno,2.0,693,49.20039349,16.60998328
China,Xiamen,0.0,51,24.44999208,118.080017
Canada,Thompson,0.0,110,55.74994204,-97.86662093
Canada,Owen Sound,0.0,224,44.56664532,-80.84998519
Canada,Gander,0.0,116,48.94999534,-54.54998845
Finland,Tampere,1.0,604,61.5000045,23.75001257
China,Chengdu,0.0,151,30.67000002,104.0700195
Papua New Guinea,Port Moresby,0.0,12,-9.464707826,147.1925036
Netherlands,Haarlem,5.0,731,52.38043194,4.629991006
Canada,Kenora,0.0,256,49.76668968,-94.46664758
Ireland,Sligo,3.0,202,54.26706097,-8.483317099
Sweden,Kristianstad,0.0,136,56.03367149,14.1332869
Serbia,Novi Sad,0.0,300,45.2503762,19.84994055
Armenia,Yerevan,0.0,467,40.18115074,44.51355139
France,Nice,0.0,672,43.71501772,7.265023965
Canada,Hinton,1.0,158,53.39998212,-117.5833503
Norway,Lillehammer,0.0,179,61.13328269,10.5000203
Germany,Freiburg,0.0,633,48.00041506,7.869948281
United States of America,Kitty Hawk,1.0,202,36.07731854,-75.70471786
South Korea,Daejeon,0.0,135,36.33554567,127.425028
Spain,Las Palmas,0.0,109,28.09997601,-15.42999902
Germany,Braunschweig,1.0,244,52.24997479,10.5000203
Canada,Drummondville,0.0,132,45.88333498,-72.4833641
Austria,Salzburg,2.0,386,47.81047833,13.0400203
Canada,Brooks,0.0,138,50.56705426,-111.9000021
United Kingdom,Greenock,0.0,220,55.93329002,-4.750030763
Serbia,Nis,0.0,172,43.33041587,21.8999963
Ireland,Drogheda,0.0,187,53.71926495,-6.347762697
Australia,Launceston,0.0,18,-41.44983559,147.1301818
Spain,Bilbao,0.0,326,43.24998151,-2.929986818
Chile,Antofagasta,0.0,113,-23.64999184,-70.40000289
United States of America,Lander,0.0,352,42.83300437,-108.7325985
Spain,Alicante,1.0,367,38.3512199,-0.483640721
United States of America,Port Lavaca,1.0,172,28.61601687,-96.62969385
Brazil,Santos,0.0,195,-23.95372393,-46.33294266
Thailand,Udon Thani,0.0,33,17.4047632,102.7893225
Spain,Pamplona,0.0,223,42.82000775,-1.649987428
Argentina,La Plata,0.0,232,-34.90961465,-57.95996118
Moldova,Chisinau,1.0,434,47.00502362,28.85771114
India,Jaipur,0.0,497,26.92113324,75.80998734
Canada,Yorkton,0.0,200,51.21706626,-102.4665469
Croatia,Split,1.0,403,43.52040428,16.46999182
Romania,Timisoara,0.0,484,45.75882062,21.22344844
United States of America,Lamar,0.0,270,38.08649823,-102.6194058
Spain,Vigo,0.0,167,42.22001853,-8.729994549
Germany,Kiel,1.0,422,54.33039044,10.13001705
Canada,Chicoutimi,0.0,112,48.43330853,-71.06670638
Germany,Mainz,0.0,403,49.98247246,8.273219156
Germany,Heidelberg,0.0,428,49.41999249,8.699975137
South Korea,Suwon,0.0,66,37.25778912,127.0108931
Lithuania,Kaunas,0.0,593,54.95040428,23.88003048
Malaysia,Sibu,0.0,60,2.302971821,111.8430334
Canada,New Glasgow,0.0,151,45.58327578,-62.63331934
United Kingdom,Scarborough,2.0,230,54.28039349,-0.429984376
United States of America,Devils Lake,0.0,163,48.11221702,-98.85968693
Switzerland,Luzern,1.0,167,47.05042137,8.280000772
France,Marseille,0.0,562,43.28997906,5.37501013
Netherlands,Maastricht,0.0,383,50.85299707,5.677002477
Australia,Townsville,1.0,34,-19.24995034,146.7699971
Germany,Augsburg,4.0,418,48.35000612,10.89999589
Mexico,Mexicali,3.0,132,32.64998252,-115.4800161
Poland,Gdansk,0.0,314,54.3599752,18.64004024
United States of America,Willcox,0.0,115,32.25321088,-109.8313945
Canada,Creston,0.0,150,49.09996035,-116.516697
Norway,Kristiansand,1.0,433,58.16664207,8.000017862
New Zealand,Wanganui,0.0,70,-39.9311686,175.0288407
United States of America,International Falls,2.0,162,48.60112775,-93.4108464
Norway,Moss,0.0,313,59.43697797,10.66915727
United States of America,Dalhart,2.0,125,36.06080792,-102.5186109
Morocco,Agadir,0.0,133,30.43998822,-9.620043581
Sweden,Kalmar,1.0,92,56.66701784,16.36658728
United States of America,Trinidad,0.0,230,37.17133445,-104.5063965
Sweden,Karlstad,0.0,228,59.36713727,13.49994055
Montenegro,Podgorica,0.0,246,42.46597251,19.26630692
Poland,Katowice,0.0,271,50.26038047,19.02001705
Sweden,Sundsvall,1.0,166,62.40005292,17.31665849
Spain,Marbella,0.0,208,36.51661989,-4.88333012
Estonia,Tartu,1.0,287,58.38394147,26.70988358
Japan,Hiroshima,0.0,79,34.3878351,132.442913
Mexico,Ensenada,0.0,223,31.86997845,-116.6199982
Canada,Prince Rupert,1.0,148,54.31667035,-130.3299882
Germany,Bielefeld,0.0,328,52.02998822,8.530011351
Norway,Haugesund,0.0,303,59.4119149,5.277496703
Japan,Kitakyushu,0.0,11,33.87039899,130.8200146
Maldives,Male,1.0,513,4.16670819,73.49994747
Mexico,Cuernavaca,0.0,84,18.92110476,-99.23999964
China,Qingdao,0.0,40,36.08997927,120.3300089
Mexico,Chihuahua,0.0,96,28.64498151,-106.0849823
Oman,Muscat,1.0,1089,23.61332481,58.59331213
Chile,Valparaiso,1.0,112,-33.04776447,-71.62101363
Thailand,Chiang Rai,0.0,73,19.91187115,99.82645422
United States of America,Miles City,1.0,191,46.4088843,-105.8399844
Croatia,Rijeka,0.0,385,45.32998374,14.45001176
United Kingdom,Ayr,2.0,142,55.4503996,-4.61667973
United States of America,Mendocino,0.0,202,39.30776735,-123.7994308
United States of America,Woodward,1.0,145,36.43342084,-99.39769027
France,Rennes,0.0,361,48.10002138,-1.670012046
Costa Rica,Liberia,1.0,92,10.63375531,-85.433323
Brazil,Sorocaba,0.0,66,-23.49000161,-47.46998132
Canada,Weyburn,0.0,170,49.66656659,-103.8500025
Brazil,Joinville,1.0,132,-26.31995807,-48.83994938
United Kingdom,Londonderry,1.0,156,55.00037539,-7.333283937
Malaysia,Miri,0.0,50,4.399923929,113.9845048
Japan,Fukuoka,0.0,122,33.59501528,130.4100138
United States of America,Deming,0.0,91,32.26109153,-107.7557848
India,Ahmedabad,1.0,810,23.03005292,72.58000362
Canada,Edmundston,0.0,52,47.37941937,-68.3332815
Brazil,Londrina,0.0,88,-23.30003904,-51.17998743
Malaysia,Putrajaya,0.0,52,2.914019795,101.701947
Austria,Linz,0.0,352,48.31923281,14.28878129
Pakistan,Faisalabad,1.0,463,31.40998069,73.10999711
Brazil,Manaus,0.0,153,-3.100031719,-60.00001754
Canada,Labrador City,1.0,68,52.94143129,-66.91587447
Canada,Swift Current,1.0,106,50.28373822,-107.766611
China,Fuzhou,0.0,13,26.07999595,119.3000459
Guatemala,Quetzaltenango,0.0,40,14.82995913,-91.52000574
Portugal,Aveiro,0.0,123,40.64100311,-8.650997534
Canada,New Liskeard,0.0,130,47.50000633,-79.66664657
Australia,Darwin,0.0,11,-12.42535398,130.8500386
Germany,Wuppertal,0.0,195,51.25000999,7.169991006
Australia,Gold Coast,0.0,44,-28.08150429,153.4482458
Panama,David,0.0,75,8.433321146,-82.43332524
China,Tianjin,0.0,90,39.13002626,117.2000191
Ireland,Donegal,0.0,96,54.65000917,-8.116672812
Bolivia,Cochabamba,0.0,81,-17.41001097,-66.16997685
Bolivia,Santa Cruz,0.0,81,-17.75391762,-63.22599634
United States of America,Rawlins,0.0,41,41.7906649,-107.234292
France,Lille,0.0,244,50.64996909,3.080008096
Thailand,Chon Buri,0.0,76,13.40040814,100.9999743
United States of America,Lead,0.0,88,44.35084454,-103.7657699
Spain,Murcia,1.0,228,37.9799931,-1.12996749
Mexico,Toluca,0.0,122,19.3303821,-99.66999923
Netherlands,Leeuwarden,0.0,117,53.25037884,5.783357298
Romania,Constanta,0.0,224,44.20266237,28.60997432
United States of America,Socorro,1.0,237,34.06211855,-106.8989895
Brazil,Natal,0.0,85,-6.983825664,-60.26994938
Brazil,Natal,0.0,85,-5.780023174,-35.24000431
Canada,Sioux Lookout,0.0,106,50.26296429,-91.9166482
Canada,Dryden,0.0,102,49.78332949,-92.83333643
Zimbabwe,Harare,1.0,454,-17.81778969,31.04470943
Namibia,Windhoek,0.0,409,-22.57000608,17.0835461
Azerbaijan,Baku,0.0,497,40.39527203,49.86221716
Brazil,Sete Lagoas,0.0,12,-19.44962807,-44.24999699
Italy,Catania,0.0,274,37.49997072,15.07999914
France,Nantes,0.0,381,47.21038576,-1.590016929
Croatia,Osijek,1.0,138,45.55038373,18.6800378
Vietnam,Vung Tau,0.0,22,10.35537437,107.0849776
Chile,Temuco,0.0,108,-38.73000161,-72.57999903
France,Toulon,0.0,94,43.13418645,5.918821566
Japan,Sendai,0.0,24,38.28710614,141.0217175
United States of America,Wales,0.0,75,65.60959861,-168.0875027
Mexico,Cabo San Lucas,0.0,146,22.89275617,-109.9045164
Gibraltar,Gibraltar,0.0,270,36.13243495,-5.37807483
United States of America,Valdez,0.0,162,61.13599571,-146.348287
France,Grenoble,1.0,372,45.18038047,5.720001992
Argentina,Mendoza,0.0,105,-32.88333006,-68.81661117
China,Suzhou,0.0,55,31.30047833,120.620017
China,Suzhou,0.0,55,33.6361111,116.9788889
Australia,Toowoomba,0.0,4,-27.56453327,151.9555204
Venezuela,Barquisimeto,0.0,114,10.04999249,-69.29996668
Macedonia,Bitola,0.0,90,41.03905703,21.33951371
Canada,Meadow Lake,0.0,46,54.13011843,-108.4347356
New Zealand,Taupo,1.0,32,-38.69300128,176.0770455
Vietnam,Nha Trang,0.0,32,12.25003908,109.1700183
Canada,Baddeck,0.0,162,46.09998842,-60.75397669
United States of America,Falfurrias,0.0,40,27.22690269,-98.14489852
Japan,Kumamoto,0.0,37,32.80092938,130.700642
Algeria,Algiers,0.0,134,36.7630648,3.05055253
Poland,Szczecin,0.0,196,53.42039431,14.53000688
Slovakia,Kosice,0.0,333,48.73044802,21.25001013
Slovenia,Maribor,0.0,234,46.54047833,15.65004187
Japan,Nagasaki,0.0,8,32.76498842,129.8850329
Botswana,Gaborone,1.0,406,-24.64631346,25.91194779
Puerto Rico,Arecibo,0.0,104,18.44002301,-66.72999435
Australia,Wollongong,0.0,14,-34.41538125,150.890004
Spain,Oviedo,0.0,120,43.35049217,-5.829990683
Italy,Pisa,1.0,227,43.72046958,10.40002641
Mexico,Celaya,0.0,151,20.53002464,-100.8000078
Mexico,Xalapa,1.0,74,19.52998232,-96.91998621
Denmark,Esbjerg,0.0,139,55.46703941,8.450016234
Canada,Kindersley,0.0,60,51.46697349,-109.1332976
Spain,Valladolid,0.0,186,41.65000165,-4.750030763
China,Xian,0.0,27,34.27502545,108.8949963
Jamaica,Spanish Town,0.0,162,17.98333254,-76.94999068
Pakistan,Rawalpindi,0.0,531,33.59997622,73.04002722
Brazil,Teresina,0.0,46,-5.095000388,-42.7800092
Denmark,Roskilde,2.0,228,55.64997398,12.08333451
Bulgaria,Varna,0.0,230,43.21564252,27.89528926
Australia,Geelong,0.0,5,-38.16749505,144.3956335
Indonesia,Bogor,0.0,41,-6.570000795,106.7500109
Canada,The Pas,0.0,84,53.81662335,-101.2333147
Canada,Port Hardy,0.0,50,50.71707094,-127.4999801
Taiwan,Hualien,0.0,10,23.98374147,121.6000089
Canada,Jasper,0.0,126,52.88332115,-118.0833714
Belarus,Minsk,0.0,354,53.89997744,27.56662716
Norway,Sandnes,0.0,140,58.84541201,5.690029662
Denmark,Vejle,0.0,255,55.70900103,9.534996498
Ireland,Kilkenny,2.0,208,52.65454958,-7.252255291
Switzerland,Lugano,1.0,144,46.0003821,8.966677204
Spain,Burgos,0.0,68,42.35039817,-3.67996688
Mexico,Oaxaca,0.0,102,17.08268984,-96.66994979
Sweden,Karlskrona,0.0,68,56.20300219,15.29600461
France,Le Havre,0.0,111,49.50497438,0.104970051
Switzerland,Chur,0.0,110,46.85002016,9.500029662
Bulgaria,Burgas,1.0,104,42.51460004,27.47464311
Israel,Haifa,0.0,231,32.8204114,34.98002478
Japan,Okayama,0.0,34,34.67202964,133.9170865
Mexico,Aguascalientes,0.0,45,21.87945992,-102.2904135
Portugal,Ponta Delgada,0.0,147,37.74830182,-25.6665835
Portugal,Faro,1.0,142,37.0170803,-7.933273154
United States of America,Beeville,0.0,107,28.40597801,-97.75083989
Romania,Craiova,0.0,114,44.3262724,23.82587357
Switzerland,Fribourg,0.0,61,46.80000008,7.149996522
China,Dongguan,0.0,35,23.0488889,113.7447222
Romania,Ploiesti,0.0,127,44.94690635,26.036488
Mexico,Morelia,0.0,82,19.73338076,-101.189493
Germany,Regensburg,0.0,170,49.02040448,12.12002478
Spain,Santander,1.0,70,43.3804645,-3.799985394
Mauritius,Port Louis,1.0,585,-20.16663857,57.49999385
Canada,Shelburne,0.0,40,43.76560895,-65.31935694
China,Harbin,0.0,38,45.74998395,126.6499849
South Korea,Ulsan,0.0,44,35.54673077,129.3169539
Italy,Venice,0.0,176,45.43865928,12.33499874
Canada,Vegreville,0.0,76,53.49997601,-112.0499671
Canada,Lac La Biche,0.0,120,54.77193972,-111.964701
Poland,Gliwice,0.0,118,50.3303762,18.67001257
Bosnia and Herzegovina,Tuzla,1.0,127,44.5504706,18.6800378
Italy,Treviso,0.0,121,45.67001467,12.24001745
Chile,La Serena,0.0,88,-29.89999795,-71.24997685
Mexico,Guaymas,0.0,69,27.93001223,-110.8899862
China,Wuhan,0.0,54,30.58003135,114.270017
Canada,Dauphin,0.0,106,51.15001609,-100.0499502
New Zealand,Levin,0.0,51,-40.61236733,175.2772493
Canada,Smithers,0.0,232,54.76659121,-127.1665896
United States of America,Burley,0.0,79,42.53581321,-113.7918763
Malaysia,Sungai Petani,0.0,108,5.649718444,100.4793343
Brazil,Americana,0.0,24,-22.74994342,-47.32998987
Cambodia,Siem Reap,0.0,12,13.36663759,103.8500329
Chile,Puerto Montt,0.0,50,-41.4699894,-72.92997766
Indonesia,Medan,0.0,224,3.579973978,98.65004024
Turkey,Bursa,0.0,234,40.1999868,29.06999792
United States of America,Guymon,0.0,88,36.68580853,-101.4795012
France,Nancy,0.0,204,48.68368085,6.200024372
Sweden,Visby,0.0,169,57.63365135,18.30000932
Australia,Mandurah,0.0,24,-32.52348259,115.7470567
Italy,Bari,2.0,325,41.1142204,16.87275793
United States of America,Wrangell,1.0,88,56.47126752,-132.3715949
Mexico,Tepic,0.0,126,21.50539146,-104.8799913
Italy,Cagliari,0.0,97,39.22239789,9.103981485
Italy,Bolzano,0.0,130,46.5004291,11.36001949
United Kingdom,Dover,0.0,154,51.13371218,1.300013386
France,Angers,0.0,218,47.48000755,-0.530029949
Romania,Brasov,2.0,375,45.64753542,25.6071602
United States of America,Kingsville,0.0,186,27.51595481,-97.8558464
Ecuador,Ibarra,0.0,16,0.360377216,-78.12999618
Argentina,Neuquen,0.0,61,-38.95003986,-68.05999068
Venezuela,Barcelona,0.0,30,10.13037518,-64.72001367
United States of America,Wallace,0.0,72,47.47421979,-115.9268881
Italy,Pescara,0.0,118,42.45543052,14.21865637
Kazakhstan,Almaty,0.0,412,43.32498985,76.91503617
Japan,Kanazawa,0.0,30,36.56000226,136.6400211
Mexico,Colima,0.0,112,19.22997479,-103.7200104
Japan,Hachioji,0.0,10,35.65770591,139.3260587
Germany,Ulm,0.0,172,48.40039064,9.999999144
Germany,Bremerhaven,0.0,129,53.55043805,8.579982461
Portugal,Viseu,0.0,64,40.65699611,-7.910000431
New Zealand,Gisborne,1.0,34,-38.64478717,178.0152217
United States of America,Winslow,0.0,179,35.28470542,-110.7006954
Germany,Rostock,0.0,89,54.07038047,12.14999711
Portugal,Leiria,0.0,61,39.73899603,-8.804996462
Mexico,Irapuato,0.0,71,20.67001609,-101.4999909
Italy,Novara,0.0,105,45.45000226,8.61998002
Bosnia and Herzegovina,Mostar,0.0,120,43.35049217,17.82003861
India,Gurgaon,1.0,735,28.45000633,77.01999101
Norway,Skien,0.0,227,59.19998985,9.600023558
Bulgaria,Plovdiv,0.0,270,42.15397605,24.7539823
United States of America,Hardin,0.0,67,45.731768,-107.612486
China,Foshan,0.0,36,23.03005292,113.1200097
Canada,Parry Sound,0.0,168,45.33370445,-80.03300663
New Zealand,Timaru,0.0,28,-44.38159463,171.2185823
Iraq,Baghdad,2.0,101,33.3386485,44.39386877
Mexico,Saltillo,1.0,108,25.41995872,-101.0049823
Japan,Gifu,0.0,23,35.42309491,136.7627526
United States of America,Boulder City,0.0,84,35.97895245,-114.8315802
France,Tours,0.0,142,47.38037539,0.699946654
France,Amiens,0.0,79,49.90037661,2.300004027
Norway,Hamar,1.0,177,60.82000207,11.06900156
Norway,Harstad,0.0,103,68.7879059,16.51557043
China,Ningbo,1.0,30,29.87997072,121.5500378
Indonesia,Balikpapan,0.0,12,-1.250015443,116.8300158
Peru,Cusco,0.0,18,-13.52502846,-71.97215499
Zambia,Lusaka,0.0,316,-15.41664427,28.28332759
Ukraine,Kharkiv,0.0,132,49.99998293,36.25002478
Italy,Modena,0.0,118,44.65002525,10.91999467
Canada,Gimli,0.0,36,50.63330345,-96.99998133
France,Brest,0.0,93,48.39044293,-4.49500757
Brazil,Vila Velha,0.0,67,3.21666282,-51.21665186
Brazil,Vila Velha,0.0,67,-20.36760822,-40.31798893
Canada,Wiarton,0.0,66,44.73368939,-81.13330123
Bosnia and Herzegovina,Banja Luka,0.0,98,44.78040489,17.17997432
India,Patna,3.0,326,25.62495913,85.13003861
Australia,Ivanhoe,0.0,16,-32.89960814,144.3000187
Japan,Hamamatsu,0.0,16,34.71807334,137.7327193
Malaysia,Batu Pahat,0.0,38,1.850363789,102.9333447
Liberia,Monrovia,0.0,93,6.31055666,-10.80475163
China,Zhenjiang,0.0,30,32.21998293,119.4300122
New Zealand,Blenheim,0.0,34,-41.52099404,173.9592419
China,Zhengzhou,0.0,36,34.75499615,113.6650927
Cameroon,Douala,0.0,161,4.060409769,9.709991006
United Kingdom,Penzance,0.0,144,50.13372154,-5.550033611
Indonesia,Mataram,0.0,28,-8.579542217,116.1350195
France,Versailles,0.0,112,48.80046958,2.133347533
Switzerland,Zug,0.0,145,47.17899903,8.487000565
Ecuador,Ambato,0.0,64,-1.269600811,-78.61999211
China,Jiaxing,0.0,6,30.77040733,120.7499833
India,Coimbatore,1.0,294,10.99996035,76.95002112
Canada,Kapuskasing,0.0,62,49.4166852,-82.43332524
Japan,Kagoshima,0.0,12,31.58596478,130.561064
Malaysia,Butterworth,0.0,30,5.417071146,100.4000109
Ecuador,Manta,0.0,72,-0.980006084,-80.72996668
Brazil,Santa Maria,1.0,92,-29.68331867,-53.80000838
Italy,Trieste,0.0,241,45.65037762,13.80002559
United Kingdom,Omagh,0.0,110,54.60001223,-7.300004315
Chile,Iquique,0.0,40,-20.24999266,-70.12996769
China,Hefei,0.0,43,31.85003135,117.2800142
Brazil,Pelotas,0.0,30,-31.75001422,-52.33002059
South Africa,Pietermaritzburg,2.0,224,-29.61004148,30.39002071
Spain,Vitoria,0.0,61,42.84998008,-2.669976849
China,Chongqing,0.0,48,29.56497703,106.5949816
Spain,Tarragona,1.0,167,41.12036989,1.249990599
Belgium,Hasselt,0.0,157,50.96400317,5.483997561
Finland,Oulu,1.0,308,64.99999758,25.47001094
Sweden,Kiruna,0.0,100,67.8500045,20.21663651
Germany,Potsdam,1.0,177,52.40040489,13.06999263
Brazil,Blumenau,0.0,72,-26.9200248,-49.0899858
Canada,Marathon,0.0,30,48.75039512,-86.36665104
Italy,Parma,1.0,227,44.81042889,10.32003129
United States of America,Salmon,1.0,96,45.17567792,-113.8949966
India,Lucknow,2.0,406,26.85503908,80.91499874
Poland,Bialystok,0.0,182,53.15035911,23.1699963
Netherlands,Middelburg,1.0,69,51.50199618,3.609999541
Brazil,Piracicaba,0.0,127,-22.70999754,-47.63999679
Norway,Alta,0.0,57,69.96664532,23.24167151
Germany,Kassel,0.0,196,51.30000694,9.500029662
Chile,Osorno,0.0,6,-40.56999266,-73.1600153
Israel,Jerusalem,0.0,459,31.77840782,35.20662593
Romania,Sibiu,0.0,141,45.79711285,24.13712073
United States of America,Crookston,1.0,40,47.77376223,-96.60773137
Australia,Newcastle,0.0,4,-32.84534788,151.8150122
Italy,Ancona,0.0,92,43.60037355,13.49994055
Finland,Vaasa,1.0,208,63.09998435,21.60001461
Turkey,Antalya,1.0,298,36.88998212,30.69997595
Romania,Pitesti,0.0,104,44.85631757,24.87583533
France,Dijon,0.0,82,47.33040428,5.030018268
Australia,Melton,0.0,12,-37.68954832,144.570028
India,Ludhiana,0.0,150,30.92776206,75.87225745
South Korea,Changwon,0.0,32,35.21910219,128.583562
South Africa,Port Elizabeth,1.0,290,-33.97003375,25.60002885
Sweden,Falun,0.0,87,60.61300204,15.64700455
Poland,Lublin,0.0,179,51.25039756,22.57272009
United States of America,Fort Stockton,0.0,80,30.89169191,-102.8849968
Japan,Toyama,0.0,32,36.69999371,137.2300109
Italy,Ravenna,0.0,42,44.42037518,12.22001868
United Kingdom,Newcastle,1.0,192,55.00037539,-1.59999048
Romania,Galati,0.0,113,45.45589337,28.04587439
United States of America,White Sulphur Springs,0.0,67,37.79388043,-80.30348108
United States of America,Tonopah,0.0,94,38.06699038,-117.2289791
Poland,Gdynia,0.0,138,54.52037884,18.53002112
Norway,Molde,1.0,110,62.74830039,7.183323526
Chile,Punta Arenas,0.0,90,-53.16498615,-70.93999577
Brazil,Uberaba,0.0,34,-19.7799955,-47.9500037
Denmark,Viborg,0.0,277,56.43333701,9.399984089
Ukraine,Odessa,0.0,191,46.4900163,30.71000118
Hungary,Debrecen,0.0,178,47.53046958,21.63003861
Netherlands,Zwolle,0.0,264,52.52400009,6.096996529
Australia,Cairns,0.0,44,-16.88783986,145.7633309
Thailand,Nakhon Ratchasima,0.0,36,15.00002626,102.1000105
Angola,Luanda,0.0,117,-8.838286114,13.23442704
Morocco,Kenitra,0.0,39,34.27040041,-6.579996583
Russia,Krasnodar,0.0,84,45.01997683,39.0000378
Canada,Victoriaville,0.0,54,46.05040489,-71.96667729
Japan,Nagano,0.0,16,36.64999676,138.1700052
Canada,Red Lake,0.0,52,51.03369244,-93.83330123
Germany,Ingolstadt,2.0,90,48.77041974,11.44998816
Spain,Palma,1.0,80,39.57426271,2.65424597
Mexico,Veracruz,0.0,95,19.17734235,-96.15998092
Germany,Erfurt,0.0,132,50.97005292,11.02996212
Thailand,Surat Thani,0.0,41,9.1500991,99.34012732
Australia,Queanbeyan,0.0,4,-35.3546004,149.2113468
Chile,Valdivia,0.0,97,-39.7950012,-73.24502303
South Korea,Jeju,0.0,4,33.51013674,126.5219307
Canada,Shawinigan,1.0,98,46.55037437,-72.733323
Germany,Duisburg,1.0,152,51.42997316,6.750016641
Russia,Kazan,0.0,140,55.74994204,49.12634477
Italy,Bergamo,3.0,141,45.70040041,9.669993448
China,Jinan,0.0,40,36.67498232,116.9950187
Turkey,Adana,0.0,169,36.99498863,35.32000403
Poland,Bydgoszcz,0.0,85,53.12041262,18.01000118
India,Indore,2.0,352,22.71505922,75.86502274
United States of America,Goodland,0.0,43,39.34848838,-101.7110374
Finland,Kuopio,0.0,56,62.89428632,27.69493974
Russia,Tyumen,0.0,40,57.14001223,65.52999467
Brazil,Campo Grande,0.0,75,-20.45003213,-54.61662521
Malaysia,Alor Setar,0.0,42,6.113307718,100.3729325
Germany,Oldenburg,0.0,287,53.1299986,8.220004434
Myanmar,Mandalay,0.0,25,21.96998842,96.08502885
Venezuela,Maracay,1.0,86,10.2468797,-67.59580713
China,Dalian,0.0,64,38.92283839,121.6298308
Chile,Arica,0.0,55,-18.50002195,-70.28998377
Russia,Omsk,0.0,41,54.98998842,73.39995357
Pakistan,Abbottabad,0.0,23,34.1495034,73.19950069
Netherlands,Assen,1.0,131,53.00000109,6.550002585
United States of America,John Day,1.0,43,44.41652529,-118.9520264
Thailand,Phitsanulok,0.0,63,16.8283126,100.2728869
Indonesia,Samarinda,0.0,22,-0.500035381,117.1499963
Costa Rica,Quesada,3.0,27,10.33049217,-84.43997278
Mexico,Villahermosa,0.0,80,17.99997235,-92.89997319
Poland,Rzeszow,0.0,72,50.07046958,22.00004187
Colombia,Cartagena,0.0,93,10.39973859,-75.51439356
Philippines,Baguio City,0.0,17,16.42999066,120.5699426
Canada,Hay River,0.0,84,60.84999249,-115.7000027
United States of America,Nome,0.0,31,64.50610008,-165.4063744
Honduras,La Ceiba,0.0,52,15.7631063,-86.79698653
Zambia,Sesheke,0.0,55,-17.46954222,24.30000484
Colombia,Pereira,0.0,133,4.81038983,-75.67999068
Canada,La Ronge,1.0,62,55.10000755,-105.3000173
Canada,Joliette,0.0,56,46.03332583,-73.43330611
Egypt,Tanta,0.0,40,30.79043194,31.00000932
Canada,Digby,0.0,40,44.62258506,-65.7604928
Mexico,Nuevo Laredo,0.0,55,27.4999868,-99.55000655
Croatia,Pula,0.0,31,44.86871991,13.84808467
Japan,Niigata,0.0,14,37.91999676,139.0400297
Canada,Fort Nelson,0.0,64,58.81670575,-122.5329706
South Korea,Yeosu,0.0,6,34.73678021,127.7458353
Costa Rica,Puntarenas,0.0,15,9.970164098,-84.83358954
Mozambique,Maputo,0.0,203,-25.95527749,32.58916296
Romania,Braila,0.0,48,45.29199615,27.96900354
Romania,Buzau,0.0,83,45.15650596,26.80651851
Canada,Stephenville,0.0,66,48.55040733,-58.56656498
Algeria,Oran,0.0,42,35.71000246,-0.61997278
Germany,Magdeburg,0.0,118,52.13042137,11.62000362
Canada,Rimouski,1.0,64,48.43374778,-68.51668115
Turkey,Balikesir,0.0,46,39.6503821,27.89001827
South Korea,Gwangju,0.0,39,35.1709656,126.9104341
Australia,Devonport,0.0,8,-41.19266757,146.3311017
France,Caen,0.0,101,49.18375368,-0.349989259
India,Faridabad,0.0,175,28.4333333,77.3166667
Turkey,Hatay,0.0,24,36.2303583,36.12000688
Colombia,Bucaramanga,0.0,50,7.1300932,-73.12588302
Thailand,Hua Hin,0.0,5,12.56970949,99.94432816
United States of America,Plattsburg,0.0,129,44.69498374,-73.45798161
Japan,Shizuoka,0.0,31,34.98583478,138.3853926
Argentina,Posadas,0.0,16,-27.3578321,-55.88510735
Malaysia,Kuantan,0.0,66,3.829958719,103.3200394
Canada,Melville,0.0,10,50.93331097,-102.7999891
Venezuela,Porlamar,0.0,4,10.9603762,-63.84998926
Morocco,Oujda,0.0,19,34.69001304,-1.909971559
South Korea,Cheongju,0.0,16,36.64389895,127.5011991
Portugal,Viana Do Castelo,0.0,64,41.69623514,-8.844137484
Thailand,Nakhon Pathom,0.0,13,13.81799707,100.0639986
New Zealand,Ashburton,0.0,8,-43.89790322,171.7300756
China,Changsha,0.0,86,28.19996991,112.969993
Bhutan,Thimphu,0.0,123,27.47298586,89.63901404
Mexico,Guanajuato,0.0,24,21.02040814,-101.2799785
Chile,Talca,0.0,11,-35.45500771,-71.67000289
United States of America,Kotzebue,0.0,74,66.89869305,-162.5965975
Italy,Taranto,0.0,52,40.50839174,17.22999711
Canada,Iqaluit,1.0,38,63.75045938,-68.50019175
Turkey,Edirne,0.0,6,41.67043968,26.56999548
Switzerland,Schaffhausen,0.0,22,47.70600309,8.632998523
Canada,Amos,0.0,34,48.56663373,-78.11666366
Belgium,Mons,1.0,108,50.44599911,3.939003561
Romania,Oradea,0.0,153,47.04998212,21.91999508
Spain,Salamanca,0.0,169,40.97040489,-5.670000449
Italy,Perugia,0.0,138,43.11037762,12.38998246
Mexico,Reynosa,0.0,27,26.07999595,-98.30003117
China,Zhuhai,0.0,20,22.2769444,113.5677778
United States of America,Needles,0.0,53,34.84842714,-114.6133507
Brazil,Bauru,0.0,23,-22.33002073,-49.08001225
Italy,Udine,1.0,190,46.07001609,13.2400081
Czech Republic,Ostrava,0.0,96,49.83035504,18.24998653
India,Guwahati,0.0,280,26.16001691,91.76999508
Japan,Matsumoto,0.0,8,36.2404352,137.9700175
Finland,Lahti,0.0,123,60.99385968,25.66493445
Chile,Copiapo,0.0,26,-27.35999795,-70.33998071
New Zealand,Whakatane,1.0,18,-37.98291543,176.9999865
Canada,Athabasca,0.0,72,54.71703351,-113.2665853
India,Ghaziabad,0.0,226,28.66038108,77.40839107
Romania,Arad,1.0,151,46.17000999,21.31998002
Ecuador,Portoviejo,0.0,22,-1.060001201,-80.45998316
United States of America,Dillingham,0.0,116,59.05656031,-158.4803121
Ghana,Kumasi,0.0,60,6.689990864,-1.630014487
China,Kunming,0.0,16,25.06998008,102.6799751
Philippines,Pasay City,0.0,12,14.5504413,120.9999939
Spain,Cadiz,0.0,105,36.53499086,-6.225005332
India,Chandigarh,0.0,481,30.71999697,76.78000565
France,Metz,0.0,62,49.1203467,6.180025593
Germany,Koblenz,0.0,99,50.35047833,7.599990599
Canada,Inuvik,0.0,30,68.34997398,-133.6999893
United States of America,Thermopolis,0.0,24,43.64597801,-108.2146715
Norway,Narvik,0.0,25,68.38315025,17.28999345
Argentina,Santa Fe,0.0,29,-31.62387205,-60.69000126
Argentina,San Rafael,0.0,30,-34.60002114,-68.33333317
Slovakia,Trnava,0.0,71,48.36659426,17.60000036
India,Salem,0.0,120,11.66999697,78.18007523
Burkina Faso,Ouagadougou,0.0,111,12.37031598,-1.524723756
Turkey,Konya,0.0,161,37.87501243,32.47500972
India,Madurai,1.0,83,9.920026264,78.12002722
Argentina,San Martin,0.0,47,-33.06998533,-68.49001612
Spain,Badajoz,0.0,60,38.8804291,-6.96997278
Switzerland,Saint Gallen,0.0,86,47.42299807,9.361998557
Colombia,Barranquilla,0.0,46,10.95998863,-74.79996688
France,Reims,0.0,123,49.25039044,4.029975951
New Zealand,Masterton,0.0,38,-40.94392332,175.6456506
China,Rizhao,0.0,6,35.43038129,119.4500109
Chile,Rancagua,0.0,42,-34.17002155,-70.73998214
Monaco,Monaco,1.0,142,43.73964569,7.406913173
Ukraine,Ternopil,0.0,38,49.53598024,25.5821488
Ireland,Killarney,0.0,25,52.05040041,-9.516664878
Romania,Suceava,0.0,71,47.63769818,26.25931677
China,Quanzhou,0.0,10,24.9000163,118.5799865
Mexico,Zacatecas,0.0,30,22.77043052,-102.5800025
Brazil,Canoas,0.0,48,-29.91999673,-51.17998743
Mexico,Manzanillo,0.0,31,19.04958662,-104.3230851
Norway,Steinkjer,0.0,93,64.01706016,11.50001094
Thailand,Krabi,0.0,44,8.052003097,98.91199867
France,Limoges,0.0,100,45.82997906,1.249990599
Brazil,Aracaju,1.0,61,-10.90002073,-37.11996708
Bulgaria,Stara Zagora,0.0,46,42.42313275,25.6227148
Thailand,Kamphaeng Phet,0.0,15,16.47299704,99.52900267
Brazil,Cascavel,0.0,58,-24.95957599,-53.46002914
Brazil,Volta Redonda,0.0,4,-22.51956989,-44.09496769
Poland,Olsztyn,0.0,64,53.80003522,20.48003129
Pakistan,Multan,0.0,102,30.19997703,71.45500769
Italy,Trento,0.0,146,46.08042889,11.11998246
Mexico,Tampico,0.0,40,22.30001996,-97.87000574
Taiwan,Nantou,0.0,10,23.91666667,120.6833333
China,Changzhou,0.0,6,31.77998395,119.9699792
Russia,Ufa,0.0,59,54.78997479,56.04003129
Pakistan,Peshawar,0.0,235,34.00501609,71.53500281
Chile,Chillan,1.0,32,-36.60000242,-72.10599695
Norway,Arendal,3.0,148,58.46475606,8.766000553
Uganda,Kampala,1.0,446,0.316658955,32.58332353
Turkey,Kahramanmaras,0.0,6,37.60998985,36.94502112
United States of America,Mobridge,0.0,5,45.54012596,-100.4347071
Ecuador,Loja,0.0,18,-3.990003236,-79.21000777
China,Wuxi,0.0,6,31.57999615,120.2999849
Japan,Koriyama,0.0,8,37.40997622,140.3799996
Saudi Arabia,Makkah,0.0,150,21.43002138,39.82003943
India,Aizawl,0.0,36,23.71039899,92.72001461
Samoa,Apia,0.0,4,-13.84154504,-171.7386416
United Kingdom,Kirkwall,0.0,40,58.96698081,-2.950011435
Lithuania,Siauliai,0.0,82,55.93863853,23.32502559
France,Perpignan,0.0,75,42.69998924,2.899967406
Romania,Satu Mare,0.0,58,47.79199816,22.88500248
Canada,Thessalon,0.0,6,46.24997927,-83.55000126
Russia,Novosibirsk,0.0,67,55.02996014,82.96004187
Turkey,Mugla,0.0,175,37.21637046,28.36389115
Argentina,Bahia Blanca,0.0,51,-38.74002684,-62.2650214
Cape Verde,Praia,0.0,14,14.91669802,-23.51668889
Australia,Ballarat,0.0,12,-37.55958209,143.8400468
Mexico,Acapulco,0.0,35,16.84999086,-99.91597905
Nepal,Lalitpur,0.0,46,27.66661745,85.3333337
Rwanda,Kigali,1.0,223,-1.953590069,30.06053178
United States of America,Fort Yukon,0.0,24,66.56468243,-145.2737789
Panama,Panama City,0.0,35,8.96801719,-79.53303715
Mali,Bamako,0.0,70,12.65001467,-8.000039105
Philippines,Davao,0.0,12,7.110016906,125.6299955
Italy,Salerno,0.0,40,40.68039675,14.76994055
Belgium,Brugge,0.0,152,51.22037355,3.230024779
Serbia,Kragujevac,0.0,44,44.01996035,20.92000443
Canada,Tofino,1.0,56,49.15207146,-125.9031487
Australia,Mildura,0.0,8,-34.18500771,142.1513643
Egypt,Suez,0.0,38,30.00497601,32.54994055
Japan,Kawagoe,0.0,4,35.91769004,139.4910616
Mexico,Matamoros,0.0,35,25.87998232,-97.50000248
Serbia,Zrenjanin,0.0,16,45.3786371,20.39946773
Indonesia,Manado,1.0,16,1.480024637,124.8499914
Spain,Guadalajara,0.0,45,40.63370709,-3.166587363
Canada,Fort Smith,0.0,16,60.00001853,-111.8833364
Argentina,Tandil,0.0,24,-37.32001015,-59.15004358
China,Nanchang,0.0,19,28.67999229,115.8799963
Bosnia and Herzegovina,Prijedor,0.0,15,44.98039268,16.70000362
Hungary,Szeged,0.0,225,46.25039268,20.15002559
Lithuania,Klaipeda,0.0,126,55.72040896,21.11994055
Malaysia,Kuala Terengganu,0.0,80,5.330409769,103.12
Uzbekistan,Tashkent,0.0,75,41.31170188,69.29493282
Argentina,San Juan,0.0,16,-31.55002643,-68.51998845
Japan,Tokushima,0.0,4,34.06738955,134.5525
Japan,Kofu,0.0,58,35.6503937,138.5833134
Japan,Oita,0.0,6,33.24322797,131.5978999
Japan,Hakodate,0.0,4,41.79497988,140.7399776
Kyrgyzstan,Bishkek,0.0,102,42.87307945,74.58520422
Iceland,Selfoss,0.0,22,63.93342185,-20.99694605
Canada,Lillooet,0.0,94,50.68371381,-121.9332656
Poland,Kielce,0.0,29,50.8903937,20.6600203
Dominican Republic,La Romana,0.0,20,18.41700116,-68.96660201
Romania,Giurgiu,0.0,10,43.92999911,25.8399995
Spain,Toledo,0.0,16,39.86703554,-4.016716351
Chile,Los Angeles,0.0,11,-37.46000161,-72.35998661
Mexico,Los Mochis,0.0,30,25.78998781,-108.9999982
Mexico,Cozumel,0.0,32,20.51000002,-86.95000045
Brazil,Itu,0.0,4,-23.26004148,-47.30001754
Taiwan,Keelung,0.0,12,25.13325787,121.7332824
Venezuela,Cabimas,0.0,6,10.42999514,-71.44999048
United States of America,Chadron,0.0,123,42.82791424,-103.0030774
Sweden,Mariestad,0.0,22,58.70500209,13.82799659
Indonesia,Pontianak,0.0,36,-0.029986553,109.3199833
Romania,Deva,0.0,77,45.88332304,22.91667357
Jamaica,May Pen,0.0,4,17.96661521,-77.23328089
Czech Republic,Liberec,0.0,48,50.79995994,15.07999914
Moldova,Balti,0.0,6,47.75908612,27.90531449
Russia,Petrozavodsk,0.0,20,61.84998313,34.28001583
Taiwan,Changhua,0.0,29,24.07340008,120.5134086
Brazil,Franca,0.0,26,-20.53002724,-47.39001205
Russia,Yekaterinburg,0.0,109,56.85002993,60.59995967
Portugal,Castelo Branco,0.0,28,39.81099615,-7.487999559
Mexico,Tapachula,0.0,4,14.89998069,-92.2699858
Spain,Albacete,0.0,92,39.00034426,-1.869999839
Italy,Livorno,0.0,68,43.55113366,10.3022747
United States of America,Pecos,0.0,60,31.41579429,-103.4998947
Kazakhstan,Astana,0.0,178,51.1811253,71.42777421
Turkey,Eskisehir,0.0,101,39.7949986,30.52996049
Mexico,Orizaba,0.0,10,18.85002382,-97.12999923
Indonesia,Salatiga,0.0,20,-7.309542217,110.4900927
Chile,Puerto Varas,0.0,30,-41.32999795,-72.98999984
Canada,Deer Lake,0.0,6,49.17440025,-57.42691878
Canada,Deer Lake,0.0,6,52.61703249,-94.06659448
Australia,Caloundra,0.0,4,-26.80003213,153.1333296
Switzerland,Neuchatel,1.0,132,46.99899914,6.922998615
Romania,Tulcea,0.0,12,45.19934572,28.79668127
Romania,Bacau,0.0,54,46.57843467,26.91963822
Japan,Fukushima,0.0,14,37.74000775,140.4700199
Mexico,Nogales,0.0,115,31.30500002,-110.9449958
Turkey,Gaziantep,0.0,35,37.07498374,37.38499426
Russia,Samara,0.0,69,53.19500755,50.15129512
South Korea,Pohang,0.0,12,36.02086204,129.3715242
Czech Republic,Ceske Budejovice,1.0,66,48.98001935,14.46003699
South Korea,Gunsan,0.0,18,35.98176575,126.7160215
Japan,Fukui,0.0,50,36.07041974,136.2200468
Croatia,Slavonski Brod,0.0,28,45.16027834,18.01558223
Japan,Utsunomiya,0.0,20,36.54997703,139.8700048
Indonesia,Padang,0.0,8,-0.960007305,100.3600134
Portugal,Vila Real,0.0,19,41.29399815,-7.73700249
Norway,Hammerfest,0.0,44,70.66127993,23.68800085
South Africa,Benoni,0.0,107,-26.14958087,28.32993974
Germany,Cottbus,0.0,58,51.7704175,14.32996741
India,Vadodara,0.0,182,22.31001935,73.18001868
Canada,Dawson City,0.0,24,64.0666437,-139.4166687
Turkey,Tokat,0.0,16,40.30599617,36.56300452
Switzerland,Aarau,0.0,136,47.3900041,8.03400361
Peru,Arequipa,0.0,88,-16.41999388,-71.53001144
Brazil,Nova Friburgo,0.0,37,-22.25999917,-42.54004968
Thailand,Rayong,0.0,10,12.67184796,101.2814559
Indonesia,Palembang,0.0,68,-2.980039043,104.7500297
Canada,Atikokan,0.0,36,48.75039512,-91.61658899
Belgium,Namur,0.0,122,50.47039349,4.870028034
Afghanistan,Kabul,0.0,71,34.51669029,69.18326005
Denmark,Svendborg,0.0,24,55.07042279,10.61665401
Argentina,Resistencia,0.0,44,-27.45999184,-58.99002751
Germany,Schwerin,0.0,26,53.63330408,11.41669861
United States of America,Dumas,0.0,57,35.86239626,-101.9668875
Thailand,Nakhon Si Thammarat,0.0,4,8.399989847,99.97001135
Belize,Corozal,0.0,6,18.39799811,-88.3880005
Germany,Chemnitz,0.0,186,50.82998395,12.91997595
Argentina,Ushuaia,0.0,8,-54.79000324,-68.31000126
India,Bhopal,1.0,344,23.24998781,77.40999304
Argentina,Salta,0.0,35,-24.78335936,-65.41663782
Argentina,San Justo,0.0,36,-30.78288979,-60.58328943
Australia,Gympie,0.0,20,-26.18859658,152.6709289
Chile,Talcahuano,0.0,32,-36.71668781,-73.11665877
Australia,Bendigo,0.0,12,-36.75999266,144.2800199
El Salvador,Santa Ana,0.0,23,13.9946096,-89.55976363
Australia,Geraldton,0.0,4,-28.76663043,114.5999711
Austria,Wiener Neustadt,0.0,10,47.81598187,16.24995357
Italy,Lecce,0.0,48,40.36039044,18.14999263
Japan,Wakayama,0.0,4,34.22311647,135.1677079
Germany,Jena,0.0,38,50.93044293,11.58000606
United States of America,Childress,0.0,46,34.4248871,-100.2139195
Canada,Burns Lake,0.0,12,54.21701235,-125.7665975
Papua New Guinea,Kerema,0.0,34,-7.927001897,145.8379987
Bosnia and Herzegovina,Zenica,0.0,44,44.21997398,17.91998083
Argentina,Santa Rosa,0.0,10,-36.6200012,-64.29998763
Bulgaria,Pleven,0.0,28,43.42376935,24.61337073
South Korea,Wonju,0.0,12,37.35514752,127.9396219
Brazil,Presidente Prudente,0.0,24,-22.12000771,-51.39000045
Canada,Hudson Bay,0.0,14,52.8504291,-102.3832961
Vietnam,Can Tho,0.0,14,10.04999249,105.7700191
Portugal,Horta,0.0,6,38.53465595,-28.64475681
Canada,Lake Louise,0.0,10,51.43369387,-116.1832807
Argentina,Rosario,0.0,8,-32.95112954,-60.66630762
Slovakia,Presov,0.0,48,48.99973391,21.23936479
Brazil,Novo Hamburgo,0.0,40,-29.70962197,-51.13998987
Chile,Ancud,0.0,14,-41.86996499,-73.82997441
China,Changchun,0.0,16,43.86500856,125.3399873
Russia,Volgograd,0.0,30,48.71000999,44.49996049
France,Arras,0.0,36,50.28332481,2.783333698
Indonesia,Malang,0.0,6,-7.97999225,112.610015
Mexico,Durango,0.0,30,24.03110292,-104.67003
Nigeria,Ibadan,0.0,35,7.380026264,3.929982054
Croatia,Zadar,0.0,32,44.12013511,15.26226192
Nicaragua,Rivas,0.0,4,11.44037274,-85.8199919
France,Annecy,0.0,28,45.89997479,6.116670287
China,Nanning,0.0,32,22.81998822,108.3200443
Spain,Huelva,0.0,126,37.25037355,-6.929949383
India,Kochi,0.0,129,10.01500755,76.22391557
Brazil,Cabo Frio,0.0,18,-22.88998655,-42.03997685
Canada,Watson Lake,0.0,32,60.1166264,-128.80003
Colombia,Manizales,1.0,16,5.059986998,-75.52000045
China,Guiyang,0.0,29,26.58004295,106.7200386
India,Surat,0.0,235,21.19998374,72.84003943
Canada,Flin Flon,0.0,54,54.76659121,-101.8833008
Australia,Shepparton,0.0,4,-36.37458982,145.3913732
Canada,Wawa,0.0,38,48.00041506,-84.78333683
Romania,Targoviste,0.0,69,44.93799913,25.4590025
Egypt,Ismailia,0.0,25,30.5903408,32.25998409
India,Pondicherry,0.0,27,11.93499371,79.83000037
Colombia,Bello,0.0,6,6.329986998,-75.5699974
El Salvador,San Miguel,0.0,12,13.48334881,-88.18333602
Romania,Baia Mare,0.0,79,47.65945396,23.57906693
Argentina,El Calafate,0.0,17,-50.33332436,-72.30001612
Argentina,Parana,0.0,30,-31.73332273,-60.53334416
Spain,Algeciras,0.0,62,36.12671215,-5.466530363
Germany,Flensburg,1.0,128,54.78374778,9.433315388
Ukraine,Donetsk,0.0,44,48.00000165,37.82998002
India,Nagpur,2.0,154,21.16995974,79.08999385
China,Haikou,1.0,30,20.05000226,110.3200256
China,Wenzhou,0.0,18,28.0199809,120.6500927
China,Yinchuan,0.0,12,38.46797365,106.2730375
Switzerland,Solothurn,0.0,49,47.2120021,7.536996608
Czech Republic,Jihlava,0.0,15,49.40038129,15.58332759
Ukraine,Cherkasy,0.0,28,49.43472028,32.07090002
Indonesia,Palu,0.0,12,-0.907038962,119.8330367
Turkey,Trabzon,0.0,24,40.97999086,39.71999385
South Africa,Middelburg,0.0,12,-25.75963051,29.47002519
South Africa,Middelburg,0.0,12,-31.50000364,25.00998734
Canada,Moosonee,0.0,4,51.28060244,-80.65798141
Brazil,Ponta Grossa,0.0,17,-25.09000731,-50.16004968
Indonesia,Pekanbaru,0.0,38,0.564964212,101.425013
Ireland,Shannon,0.0,40,52.7038489,-8.864146567
Czech Republic,Olomouc,0.0,116,49.63003135,17.24999589
France,Roanne,0.0,138,46.03332583,4.066666218
Thailand,Ayutthaya,0.0,28,14.35879925,100.5684244
